[
  {
    "lat": 41.956892084,
    "lon": -87.74750923800002,
    "tags": {
      "name": "Cicero & Berteau"
    }
  },
  {
    "lat": 41.67799153599998,
    "lon": -87.64178572600002,
    "tags": {
      "name": "Halsted & 119th Street"
    }
  },
  {
    "lat": 42.012049691000016,
    "lon": -87.70896851700002,
    "tags": {
      "name": "Kedzie & Touhy"
    }
  },
  {
    "lat": 41.954186386,
    "lon": -87.66891603599998,
    "tags": {
      "name": "Ashland & Irving Park"
    }
  },
  {
    "lat": 41.83201446999999,
    "lon": -87.67517869800002,
    "tags": {
      "name": "Archer & Damen"
    }
  },
  {
    "lat": 41.805777001000024,
    "lon": -87.70398,
    "tags": {
      "name": "Kedzie & 48th Place"
    }
  },
  {
    "lat": 41.811615116999974,
    "lon": -87.70402509799999,
    "tags": {
      "name": "Kedzie & 45th Street"
    }
  },
  {
    "lat": 41.943529618000014,
    "lon": -87.64047498399998,
    "tags": {
      "name": "Lake Shore & Roscoe"
    }
  },
  {
    "lat": 41.92268777300001,
    "lon": -87.697276639,
    "tags": {
      "name": "California & Milwaukee"
    }
  },
  {
    "lat": 41.76834419800002,
    "lon": -87.673530873,
    "tags": {
      "name": "Damen & 69th Street"
    }
  },
  {
    "lat": 41.89213207099999,
    "lon": -87.706360673,
    "tags": {
      "name": "Kedzie & Ohio"
    }
  },
  {
    "lat": 41.793567438000025,
    "lon": -87.693710737,
    "tags": {
      "name": "California & 55th Street"
    }
  },
  {
    "lat": 41.83039914,
    "lon": -87.68514590199999,
    "tags": {
      "name": "Western & 35th Street"
    }
  },
  {
    "lat": 41.88693999999998,
    "lon": -87.64437800000002,
    "tags": {
      "name": "Desplaines & Fulton"
    }
  },
  {
    "lat": 41.979682035999986,
    "lon": -87.668361011,
    "tags": {
      "name": "Clark & Balmoral"
    }
  },
  {
    "lat": 41.722579000999986,
    "lon": -87.58529500100002,
    "tags": {
      "name": "Stony Island & 95th Street"
    }
  },
  {
    "lat": 41.72094149999998,
    "lon": -87.650887501,
    "tags": {
      "name": "Vincennes & 95th Street"
    }
  },
  {
    "lat": 41.71606800000001,
    "lon": -87.643193,
    "tags": {
      "name": "Halsted & 98th Street"
    }
  },
  {
    "lat": 41.890294830000016,
    "lon": -87.71132927500003,
    "tags": {
      "name": "Homan & Franklin"
    }
  },
  {
    "lat": 41.80223378400001,
    "lon": -87.743173716,
    "tags": {
      "name": "Cicero & 50th Street"
    }
  },
  {
    "lat": 41.85265119799999,
    "lon": -87.63504513100003,
    "tags": {
      "name": "Archer & Cermak/Princeton"
    }
  },
  {
    "lat": 41.78389500100002,
    "lon": -87.62551300000001,
    "tags": {
      "name": "State & 61st Street"
    }
  },
  {
    "lat": 41.96174417999998,
    "lon": -87.66608024499999,
    "tags": {
      "name": "Clark & Montrose"
    }
  },
  {
    "lat": 41.866173704000005,
    "lon": -87.60976788099998,
    "tags": {
      "name": "Solidarity Dr & Lynn White Drive"
    }
  },
  {
    "lat": 41.86582566300001,
    "lon": -87.74439834100002,
    "tags": {
      "name": "Roosevelt & Cicero"
    }
  },
  {
    "lat": 41.70688442699998,
    "lon": -87.64051631900003,
    "tags": {
      "name": "103rd Street & Union"
    }
  },
  {
    "lat": 41.72174716400002,
    "lon": -87.616663894,
    "tags": {
      "name": "95th Street & Forest"
    }
  },
  {
    "lat": 41.75886117800002,
    "lon": -87.57133435700001,
    "tags": {
      "name": "75th Street & Paxton"
    }
  },
  {
    "lat": 41.937928,
    "lon": -87.811735999,
    "tags": {
      "name": "Belmont & Oketo"
    }
  },
  {
    "lat": 41.816976001,
    "lon": -87.59747700100002,
    "tags": {
      "name": "Oakenwald & 43rd Street"
    }
  },
  {
    "lat": 41.71890996000002,
    "lon": -87.70166917900002,
    "tags": {
      "name": "Kedzie & 96th Street"
    }
  },
  {
    "lat": 41.78903500000001,
    "lon": -87.625451999,
    "tags": {
      "name": "State & 58th Street"
    }
  },
  {
    "lat": 41.95124400100002,
    "lon": -87.766860001,
    "tags": {
      "name": "Central & Byron"
    }
  },
  {
    "lat": 41.71887800000002,
    "lon": -87.57521499900002,
    "tags": {
      "name": "Jeffery & 97th Street"
    }
  },
  {
    "lat": 41.921923413,
    "lon": -87.63562556900001,
    "tags": {
      "name": "Stockton & Webster"
    }
  },
  {
    "lat": 41.896187843999996,
    "lon": -87.805116209,
    "tags": {
      "name": "Harlem & Schneider"
    }
  },
  {
    "lat": 41.836478,
    "lon": -87.63167700000002,
    "tags": {
      "name": "3200 S Wentworth"
    }
  },
  {
    "lat": 41.86388299999999,
    "lon": -87.62418500000001,
    "tags": {
      "name": "Michigan & 14th Street"
    }
  },
  {
    "lat": 41.967716309000025,
    "lon": -87.76069066600002,
    "tags": {
      "name": "Milwaukee & Lawrence"
    }
  },
  {
    "lat": 41.92411248899998,
    "lon": -87.746495262,
    "tags": {
      "name": "Fullerton & Cicero"
    }
  },
  {
    "lat": 41.73691800099999,
    "lon": -87.58070499899998,
    "tags": {
      "name": "87th Street & Cregier"
    }
  },
  {
    "lat": 41.92436700100001,
    "lon": -87.73177600000002,
    "tags": {
      "name": "Fullerton & Keeler"
    }
  },
  {
    "lat": 41.736991621000016,
    "lon": -87.575502997,
    "tags": {
      "name": "87th Street & Jeffery"
    }
  },
  {
    "lat": 41.88310999999999,
    "lon": -87.64284800000001,
    "tags": {
      "name": "Washington & Jefferson"
    }
  },
  {
    "lat": 41.931517326999995,
    "lon": -87.74326071299998,
    "tags": {
      "name": "4700 W Diversey"
    }
  },
  {
    "lat": 41.786814607999986,
    "lon": -87.65481154100002,
    "tags": {
      "name": "59th Street & Racine"
    }
  },
  {
    "lat": 41.93230932300003,
    "lon": -87.67075232000002,
    "tags": {
      "name": "Diversey & Paulina"
    }
  },
  {
    "lat": 41.910015326999996,
    "lon": -87.70664437800002,
    "tags": {
      "name": "North Ave & Kedzie"
    }
  },
  {
    "lat": 41.90218806799999,
    "lon": -87.755558474,
    "tags": {
      "name": "Division & Laramie"
    }
  },
  {
    "lat": 41.86710532699999,
    "lon": -87.65651505099999,
    "tags": {
      "name": "Roosevelt & Racine"
    }
  },
  {
    "lat": 41.764465460999986,
    "lon": -87.7026459,
    "tags": {
      "name": "71st Street & Kedzie"
    }
  },
  {
    "lat": 41.90814821700002,
    "lon": -87.731215786,
    "tags": {
      "name": "Grand & Keeler"
    }
  },
  {
    "lat": 41.69135562700001,
    "lon": -87.668378512,
    "tags": {
      "name": "Monterey & Esmond"
    }
  },
  {
    "lat": 41.877610457,
    "lon": -87.68662143300003,
    "tags": {
      "name": "Jackson & Western"
    }
  },
  {
    "lat": 41.838467001000026,
    "lon": -87.62681800000001,
    "tags": {
      "name": "State & 31st Street"
    }
  },
  {
    "lat": 41.867169123,
    "lon": -87.630354012,
    "tags": {
      "name": "Clark & Roosevelt"
    }
  },
  {
    "lat": 41.96185800000001,
    "lon": -87.65480200000002,
    "tags": {
      "name": "Sheridan & Montrose"
    }
  },
  {
    "lat": 41.760817797000016,
    "lon": -87.702804415,
    "tags": {
      "name": "Kedzie & 73rd Street"
    }
  },
  {
    "lat": 41.95280766000002,
    "lon": -87.64765892399998,
    "tags": {
      "name": "Sheridan & Pine Grove"
    }
  },
  {
    "lat": 41.959540000000004,
    "lon": -87.678832,
    "tags": {
      "name": "Damen & Cullom"
    }
  },
  {
    "lat": 41.73243200100001,
    "lon": -87.64340000099997,
    "tags": {
      "name": "Halsted & 89th Street"
    }
  },
  {
    "lat": 41.79762700100002,
    "lon": -87.65483200099999,
    "tags": {
      "name": "Racine & 53rd Street"
    }
  },
  {
    "lat": 41.72215689699999,
    "lon": -87.59239584099998,
    "tags": {
      "name": "1300 E 95th Street"
    }
  },
  {
    "lat": 41.736410001000024,
    "lon": -87.617908,
    "tags": {
      "name": "87th Street & Prairie"
    }
  },
  {
    "lat": 41.87391100100001,
    "lon": -87.68144899999999,
    "tags": {
      "name": "Harrison & Leavitt"
    }
  },
  {
    "lat": 41.85051716999999,
    "lon": -87.788667266,
    "tags": {
      "name": "Cermak & East"
    }
  },
  {
    "lat": 41.953906330999985,
    "lon": -87.69097126700001,
    "tags": {
      "name": "Irving Park & Campbell"
    }
  },
  {
    "lat": 41.89806399999998,
    "lon": -87.63714299899999,
    "tags": {
      "name": "Orleans & Chestnut"
    }
  },
  {
    "lat": 41.94171800100003,
    "lon": -87.64925000099998,
    "tags": {
      "name": "Halsted & Aldine"
    }
  },
  {
    "lat": 41.828798000000006,
    "lon": -87.64599099999998,
    "tags": {
      "name": "Halsted & 36th Street"
    }
  },
  {
    "lat": 41.79967503400002,
    "lon": -87.64519818100001,
    "tags": {
      "name": "Halsted & 52nd Street"
    }
  },
  {
    "lat": 41.83297500100002,
    "lon": -87.62170699900003,
    "tags": {
      "name": "Indiana & 34th Street"
    }
  },
  {
    "lat": 41.777948219999985,
    "lon": -87.771313448,
    "tags": {
      "name": "63rd Street & Austin"
    }
  },
  {
    "lat": 42.00922140199998,
    "lon": -87.662387395,
    "tags": {
      "name": "Lunt & Sheridan"
    }
  },
  {
    "lat": 41.93228153000001,
    "lon": -87.68413186599997,
    "tags": {
      "name": "Diversey & Logan"
    }
  },
  {
    "lat": 41.83042500099998,
    "lon": -87.67727000000002,
    "tags": {
      "name": "35th Street & Archer"
    }
  },
  {
    "lat": 41.99025220200002,
    "lon": -87.72903886900002,
    "tags": {
      "name": "Peterson & Pulaski"
    }
  },
  {
    "lat": 41.87713666399998,
    "lon": -87.72579473100001,
    "tags": {
      "name": "Jackson & Pulaski"
    }
  },
  {
    "lat": 41.99056613900001,
    "lon": -87.694468185,
    "tags": {
      "name": "Peterson & Rockwell"
    }
  },
  {
    "lat": 41.75063759300002,
    "lon": -87.64877594900003,
    "tags": {
      "name": "79th Street & Morgan"
    }
  },
  {
    "lat": 41.93277852699998,
    "lon": -87.64928959500003,
    "tags": {
      "name": "Diversey & Halsted"
    }
  },
  {
    "lat": 41.71364313999999,
    "lon": -87.56008810200001,
    "tags": {
      "name": "100th Street & Torrence"
    }
  },
  {
    "lat": 41.769284958000014,
    "lon": -87.62008692799998,
    "tags": {
      "name": "69th Street & Indiana"
    }
  },
  {
    "lat": 41.78475322000003,
    "lon": -87.80105911700002,
    "tags": {
      "name": "Harlem & 59th Street"
    }
  },
  {
    "lat": 41.73708929899999,
    "lon": -87.70195313900001,
    "tags": {
      "name": "8600 S Kedzie"
    }
  },
  {
    "lat": 41.64839477300001,
    "lon": -87.539869952,
    "tags": {
      "name": "13601 S Avenue O (Senior Bldg)"
    }
  },
  {
    "lat": 41.844381999999996,
    "lon": -87.62667300099997,
    "tags": {
      "name": "State & 27th Street"
    }
  },
  {
    "lat": 42.030587622999974,
    "lon": -87.69924404900001,
    "tags": {
      "name": "Dodge & Monroe"
    }
  },
  {
    "lat": 41.78675099999998,
    "lon": -87.78152399999999,
    "tags": {
      "name": "Narragansett & 58th Street"
    }
  },
  {
    "lat": 41.72086968999997,
    "lon": -87.55096605099999,
    "tags": {
      "name": "Commercial & 96th Street"
    }
  },
  {
    "lat": 41.69339500000001,
    "lon": -87.70079399899998,
    "tags": {
      "name": "Kedzie & 110th Street"
    }
  },
  {
    "lat": 41.88348534900001,
    "lon": -87.71099775099998,
    "tags": {
      "name": "Homan & Maypole"
    }
  },
  {
    "lat": 41.704503569999986,
    "lon": -87.53518555699998,
    "tags": {
      "name": "Ewing & 105th Street"
    }
  },
  {
    "lat": 41.87032200099998,
    "lon": -87.77423199999998,
    "tags": {
      "name": "Austin & Railroad Ave (Blue Line)"
    }
  },
  {
    "lat": 41.70187685500002,
    "lon": -87.60768673299998,
    "tags": {
      "name": "Cottage Grove & 106th Street"
    }
  },
  {
    "lat": 41.70079425900002,
    "lon": -87.52569948000001,
    "tags": {
      "name": "Avenue B & 107th Street"
    }
  },
  {
    "lat": 41.933016001,
    "lon": -87.76622700000001,
    "tags": {
      "name": "Central & George"
    }
  },
  {
    "lat": 41.89228911399999,
    "lon": -87.61016713100003,
    "tags": {
      "name": "Navy Pier Terminal"
    }
  },
  {
    "lat": 41.90494900099998,
    "lon": -87.62502400099999,
    "tags": {
      "name": "Lake Shore & Scott"
    }
  },
  {
    "lat": 41.94779690500002,
    "lon": -87.64291886900003,
    "tags": {
      "name": "Lake Shore & Brompton"
    }
  },
  {
    "lat": 41.87684766699999,
    "lon": -87.627542538,
    "tags": {
      "name": "State & Van Buren"
    }
  },
  {
    "lat": 41.97336829599999,
    "lon": -87.65964820200003,
    "tags": {
      "name": "Broadway & Argyle"
    }
  },
  {
    "lat": 42.003870995,
    "lon": -87.660716821,
    "tags": {
      "name": "Sheridan & North Shore"
    }
  },
  {
    "lat": 41.807940255000005,
    "lon": -87.70385679399999,
    "tags": {
      "name": "Kedzie & 47th Street"
    }
  },
  {
    "lat": 41.867263105999996,
    "lon": -87.65659837499999,
    "tags": {
      "name": "Racine & Roosevelt"
    }
  },
  {
    "lat": 41.809080000999984,
    "lon": -87.62597000099998,
    "tags": {
      "name": "State & 47th Street"
    }
  },
  {
    "lat": 41.88558182100002,
    "lon": -87.76495562600002,
    "tags": {
      "name": "Central & Fulton"
    }
  },
  {
    "lat": 41.903421804000004,
    "lon": -87.677164458,
    "tags": {
      "name": "Damen & Division"
    }
  },
  {
    "lat": 41.78763131699998,
    "lon": -87.60597223500002,
    "tags": {
      "name": "Cottage Grove & 59th Street"
    }
  },
  {
    "lat": 41.85762293800002,
    "lon": -87.66123266699998,
    "tags": {
      "name": "Loomis & Blue Island"
    }
  },
  {
    "lat": 41.87178683899998,
    "lon": -87.62403400300002,
    "tags": {
      "name": "Michigan & 8th Street"
    }
  },
  {
    "lat": 41.98280027200002,
    "lon": -87.78762513499998,
    "tags": {
      "name": "Nagle & Bryn Mawr"
    }
  },
  {
    "lat": 41.85767206899999,
    "lon": -87.630111768,
    "tags": {
      "name": "Clark & 18th Street"
    }
  },
  {
    "lat": 41.97556813099999,
    "lon": -87.787795593,
    "tags": {
      "name": "Nagle & Foster"
    }
  },
  {
    "lat": 41.74678777399998,
    "lon": -87.653560631,
    "tags": {
      "name": "Racine & 81st Street"
    }
  },
  {
    "lat": 41.877241000000026,
    "lon": -87.705938,
    "tags": {
      "name": "Kedzie & Jackson"
    }
  },
  {
    "lat": 41.88993758100003,
    "lon": -87.62950028799997,
    "tags": {
      "name": "Dearborn & Hubbard"
    }
  },
  {
    "lat": 41.934841000000006,
    "lon": -87.76629000000003,
    "tags": {
      "name": "Central & Wellington"
    }
  },
  {
    "lat": 41.97712999999999,
    "lon": -87.836528999,
    "tags": {
      "name": "Cumberland & Catherine"
    }
  },
  {
    "lat": 41.93239667,
    "lon": -87.69752998299998,
    "tags": {
      "name": "California & Diversey"
    }
  },
  {
    "lat": 41.859817577,
    "lon": -87.68572361399998,
    "tags": {
      "name": "Western & 16th Street"
    }
  },
  {
    "lat": 41.96657548600001,
    "lon": -87.83147139300002,
    "tags": {
      "name": "Lawrence & Courtland"
    }
  },
  {
    "lat": 41.768749015000026,
    "lon": -87.64704072500001,
    "tags": {
      "name": "69th Street & Peoria"
    }
  },
  {
    "lat": 41.77429632000002,
    "lon": -87.76168061800001,
    "tags": {
      "name": "65th Street & Central"
    }
  },
  {
    "lat": 41.92108999999999,
    "lon": -87.71205799900002,
    "tags": {
      "name": "Kimball & Palmer"
    }
  },
  {
    "lat": 41.98557515800002,
    "lon": -87.66312403699999,
    "tags": {
      "name": "Ridge & Wayne"
    }
  },
  {
    "lat": 41.79873174199997,
    "lon": -87.743336489,
    "tags": {
      "name": "Archer & Cicero"
    }
  },
  {
    "lat": 41.80854091600003,
    "lon": -87.65533046399997,
    "tags": {
      "name": "Racine & 47th Street"
    }
  },
  {
    "lat": 41.983869613000024,
    "lon": -87.66018588499998,
    "tags": {
      "name": "Broadway & Bryn Mawr/Ridge"
    }
  },
  {
    "lat": 41.936578999999995,
    "lon": -87.644362,
    "tags": {
      "name": "Broadway & Wellington"
    }
  },
  {
    "lat": 41.76910793000002,
    "lon": -87.625270511,
    "tags": {
      "name": "69th Street & State (Red Line)"
    }
  },
  {
    "lat": 41.953924856000015,
    "lon": -87.68816718300002,
    "tags": {
      "name": "Irving Park & Western"
    }
  },
  {
    "lat": 41.97765800000002,
    "lon": -87.69250499999998,
    "tags": {
      "name": "Lincoln & Berwyn"
    }
  },
  {
    "lat": 41.758827268000005,
    "lon": -87.68322680199998,
    "tags": {
      "name": "Western & Columbus"
    }
  },
  {
    "lat": 42.002817897,
    "lon": -87.81630711600002,
    "tags": {
      "name": "Northwest Hwy & Oliphant"
    }
  },
  {
    "lat": 41.95645031700002,
    "lon": -87.78679862799999,
    "tags": {
      "name": "Narragansett & Berteau"
    }
  },
  {
    "lat": 41.898617113,
    "lon": -87.765620571,
    "tags": {
      "name": "Central & Augusta"
    }
  },
  {
    "lat": 41.782850999999994,
    "lon": -87.673862999,
    "tags": {
      "name": "Damen & 61st Street"
    }
  },
  {
    "lat": 41.87347436699997,
    "lon": -87.715556446,
    "tags": {
      "name": "Harrison & Central Park"
    }
  },
  {
    "lat": 41.891507382999976,
    "lon": -87.63563347899998,
    "tags": {
      "name": "Grand & Franklin"
    }
  },
  {
    "lat": 41.954273598999976,
    "lon": -87.66434190400003,
    "tags": {
      "name": "Irving Park & Southport"
    }
  },
  {
    "lat": 41.97539629400001,
    "lon": -87.73447121999999,
    "tags": {
      "name": "Foster & Tripp"
    }
  },
  {
    "lat": 41.96853651599997,
    "lon": -87.689141855,
    "tags": {
      "name": "Lawrence & Western"
    }
  },
  {
    "lat": 41.786275273,
    "lon": -87.69817227300001,
    "tags": {
      "name": "59th Street & Sacramento"
    }
  },
  {
    "lat": 41.866810805,
    "lon": -87.66133342299997,
    "tags": {
      "name": "Roosevelt & Loomis"
    }
  },
  {
    "lat": 41.78695303000001,
    "lon": -87.64510502799999,
    "tags": {
      "name": "59th Street & Halsted"
    }
  },
  {
    "lat": 41.79282341099997,
    "lon": -87.75213894500001,
    "tags": {
      "name": "55th Street & Laramie"
    }
  },
  {
    "lat": 41.92369199699999,
    "lon": -87.78061593500001,
    "tags": {
      "name": "Fullerton & Melvina"
    }
  },
  {
    "lat": 41.955751921,
    "lon": -87.649640272,
    "tags": {
      "name": "Clarendon & Bittersweet"
    }
  },
  {
    "lat": 42.030599026000004,
    "lon": -87.68573726300002,
    "tags": {
      "name": "Ridge & Monroe"
    }
  },
  {
    "lat": 41.711806803,
    "lon": -87.55144074499998,
    "tags": {
      "name": "Commercial & 101st Street"
    }
  },
  {
    "lat": 42.008173613,
    "lon": -87.82456219199997,
    "tags": {
      "name": "300 S Northwest Hwy"
    }
  },
  {
    "lat": 41.666449821000015,
    "lon": -87.62015135000001,
    "tags": {
      "name": "Michigan & 125th Place"
    }
  },
  {
    "lat": 41.75279351500001,
    "lon": -87.72217861799999,
    "tags": {
      "name": "Pulaski & 77th Street"
    }
  },
  {
    "lat": 41.92352599999998,
    "lon": -87.797189,
    "tags": {
      "name": "Grand & Newcastle"
    }
  },
  {
    "lat": 41.94671242999999,
    "lon": -87.68592809699999,
    "tags": {
      "name": "Addison & Oakley"
    }
  },
  {
    "lat": 41.73654488599999,
    "lon": -87.60733105399999,
    "tags": {
      "name": "87th Street & Langley"
    }
  },
  {
    "lat": 41.70426478000002,
    "lon": -87.70120406400002,
    "tags": {
      "name": "Kedzie & 104th Street"
    }
  },
  {
    "lat": 41.89402100000001,
    "lon": -87.67690399899999,
    "tags": {
      "name": "Damen & Huron"
    }
  },
  {
    "lat": 41.73260830200002,
    "lon": -87.62397313899999,
    "tags": {
      "name": "State & 89th Street"
    }
  },
  {
    "lat": 41.73483984799998,
    "lon": -87.71603448500002,
    "tags": {
      "name": "87th Street & Hamlin"
    }
  },
  {
    "lat": 41.75138897099998,
    "lon": -87.58860191000002,
    "tags": {
      "name": "79th Street & Anthony"
    }
  },
  {
    "lat": 41.89489200000003,
    "lon": -87.75324999899999,
    "tags": {
      "name": "Chicago & Leclaire"
    }
  },
  {
    "lat": 41.76713999999998,
    "lon": -87.62974199899998,
    "tags": {
      "name": "Wentworth & 70th Street"
    }
  },
  {
    "lat": 41.75286799999998,
    "lon": -87.63377000000003,
    "tags": {
      "name": "Vincennes & 78th Street"
    }
  },
  {
    "lat": 41.79841669899997,
    "lon": -87.615982352,
    "tags": {
      "name": "King Drive & 53rd Street"
    }
  },
  {
    "lat": 42.00656099999998,
    "lon": -87.69972299900002,
    "tags": {
      "name": "California & Morse"
    }
  },
  {
    "lat": 42.029315871999984,
    "lon": -87.74734592300001,
    "tags": {
      "name": "Skokie Blvd & Searle"
    }
  },
  {
    "lat": 42.04092439200002,
    "lon": -87.75048791299997,
    "tags": {
      "name": "Bronx & Dempster"
    }
  },
  {
    "lat": 41.820362999999986,
    "lon": -87.606744999,
    "tags": {
      "name": "Cottage Grove & 41st Street"
    }
  },
  {
    "lat": 41.90217200000001,
    "lon": -87.63746399899998,
    "tags": {
      "name": "Orleans & Hill"
    }
  },
  {
    "lat": 41.72450122599997,
    "lon": -87.70202787699998,
    "tags": {
      "name": "Kedzie & 93rd Street"
    }
  },
  {
    "lat": 41.655592292999984,
    "lon": -87.54720579100001,
    "tags": {
      "name": "Baltimore & 132nd Street"
    }
  },
  {
    "lat": 41.95873,
    "lon": -87.76724899999999,
    "tags": {
      "name": "Central & Cullom"
    }
  },
  {
    "lat": 41.860880001,
    "lon": -87.71532300000001,
    "tags": {
      "name": "Central Park & 15th Street"
    }
  },
  {
    "lat": 41.876270999999974,
    "lon": -87.62439600099998,
    "tags": {
      "name": "Michigan & Van Buren/Ida B. Wells"
    }
  },
  {
    "lat": 41.91559699999999,
    "lon": -87.71191900000002,
    "tags": {
      "name": "Kimball & Cortland"
    }
  },
  {
    "lat": 42.007866587000024,
    "lon": -87.67379160000002,
    "tags": {
      "name": "Clark & Morse"
    }
  },
  {
    "lat": 41.689171182999985,
    "lon": -87.62093363100001,
    "tags": {
      "name": "Michigan & 113th Street"
    }
  },
  {
    "lat": 41.82459720899999,
    "lon": -87.70436649999999,
    "tags": {
      "name": "Kedzie & 38th Street"
    }
  },
  {
    "lat": 41.79488542600001,
    "lon": -87.625590848,
    "tags": {
      "name": "State & Garfield"
    }
  },
  {
    "lat": 41.74325499999998,
    "lon": -87.64374700000002,
    "tags": {
      "name": "Halsted & 83rd Street"
    }
  },
  {
    "lat": 41.854200563000006,
    "lon": -87.675820273,
    "tags": {
      "name": "Damen Pink Line Station"
    }
  },
  {
    "lat": 41.96134805999998,
    "lon": -87.678856559,
    "tags": {
      "name": "Damen & Montrose"
    }
  },
  {
    "lat": 41.906338000000005,
    "lon": -87.71171399999997,
    "tags": {
      "name": "Homan & Hirsch"
    }
  },
  {
    "lat": 41.838370666,
    "lon": -87.64134581899998,
    "tags": {
      "name": "Wallace & 31st Street"
    }
  },
  {
    "lat": 41.74308541200003,
    "lon": -87.65344571899999,
    "tags": {
      "name": "Racine & 83rd Street"
    }
  },
  {
    "lat": 41.72266241800003,
    "lon": -87.55098705199998,
    "tags": {
      "name": "Commercial & 95th Street"
    }
  },
  {
    "lat": 41.78723324700002,
    "lon": -87.63754852300002,
    "tags": {
      "name": "59th Street & Normal"
    }
  },
  {
    "lat": 41.91397718600001,
    "lon": -87.74578599900002,
    "tags": {
      "name": "Grand & Cicero"
    }
  },
  {
    "lat": 41.74987844100002,
    "lon": -87.70224033599999,
    "tags": {
      "name": "79th Street & Kedzie"
    }
  },
  {
    "lat": 41.809760548999975,
    "lon": -87.59287895,
    "tags": {
      "name": "47th Street & Lake Park"
    }
  },
  {
    "lat": 41.92571877400002,
    "lon": -87.648676938,
    "tags": {
      "name": "Halsted & Lincoln/Fullerton"
    }
  },
  {
    "lat": 41.85774894399998,
    "lon": -87.67608521400001,
    "tags": {
      "name": "Damen & 18th Street"
    }
  },
  {
    "lat": 41.787031798999976,
    "lon": -87.65477982099998,
    "tags": {
      "name": "Racine & 59th Street"
    }
  },
  {
    "lat": 42.01197422199999,
    "lon": -87.69982334500003,
    "tags": {
      "name": "Touhy & California"
    }
  },
  {
    "lat": 41.966631758000005,
    "lon": -87.688362633,
    "tags": {
      "name": "Leland & Western (Brown Line)"
    }
  },
  {
    "lat": 41.902649999999994,
    "lon": -87.72153300000002,
    "tags": {
      "name": "Division & Hamlin"
    }
  },
  {
    "lat": 41.881651686,
    "lon": -87.651912347,
    "tags": {
      "name": "Madison & Morgan"
    }
  },
  {
    "lat": 42.01919502099997,
    "lon": -87.66617692099999,
    "tags": {
      "name": "Howard & Sheridan"
    }
  },
  {
    "lat": 41.96817665100002,
    "lon": -87.72780483399998,
    "tags": {
      "name": "Lawrence & Pulaski"
    }
  },
  {
    "lat": 41.79338131700001,
    "lon": -87.70822019299999,
    "tags": {
      "name": "55th Street & Homan"
    }
  },
  {
    "lat": 41.77987999999999,
    "lon": -87.63190400000002,
    "tags": {
      "name": "63rd Street & Yale"
    }
  },
  {
    "lat": 41.96833126299998,
    "lon": -87.7130492,
    "tags": {
      "name": "Lawrence & Kimball (Brown Line)"
    }
  },
  {
    "lat": 41.750506977999976,
    "lon": -87.648614329,
    "tags": {
      "name": "79th Street & Morgan"
    }
  },
  {
    "lat": 41.87725803699999,
    "lon": -87.70577393100001,
    "tags": {
      "name": "Jackson & Kedzie"
    }
  },
  {
    "lat": 41.83688121,
    "lon": -87.71953908400002,
    "tags": {
      "name": "31st Street & Hamlin"
    }
  },
  {
    "lat": 41.82345778199999,
    "lon": -87.64085565200003,
    "tags": {
      "name": "Pershing & Wallace"
    }
  },
  {
    "lat": 41.768490844999974,
    "lon": -87.66359167000002,
    "tags": {
      "name": "69th Street & Ashland"
    }
  },
  {
    "lat": 41.722537972,
    "lon": -87.57567600700003,
    "tags": {
      "name": "95th Street & Jeffery"
    }
  },
  {
    "lat": 41.881767001000014,
    "lon": -87.65183300000001,
    "tags": {
      "name": "Madison & Morgan"
    }
  },
  {
    "lat": 41.74970870300001,
    "lon": -87.70256625000002,
    "tags": {
      "name": "79th Street & Kedzie"
    }
  },
  {
    "lat": 41.916990494000004,
    "lon": -87.73600647,
    "tags": {
      "name": "Armitage & Kostner"
    }
  },
  {
    "lat": 41.949438999999984,
    "lon": -87.766798999,
    "tags": {
      "name": "Central & Grace"
    }
  },
  {
    "lat": 41.86965360300002,
    "lon": -87.642397013,
    "tags": {
      "name": "Taylor & Jefferson"
    }
  },
  {
    "lat": 41.881370000000004,
    "lon": -87.66951300099998,
    "tags": {
      "name": "Madison & Paulina"
    }
  },
  {
    "lat": 41.86702954100002,
    "lon": -87.65122371899997,
    "tags": {
      "name": "Roosevelt & Morgan"
    }
  },
  {
    "lat": 41.947014000000024,
    "lon": -87.664133999,
    "tags": {
      "name": "Addison & Southport"
    }
  },
  {
    "lat": 41.802055755000026,
    "lon": -87.74285636000002,
    "tags": {
      "name": "Cicero & 50th Street"
    }
  },
  {
    "lat": 41.827986001,
    "lon": -87.70447500099999,
    "tags": {
      "name": "Kedzie & 36th Street"
    }
  },
  {
    "lat": 41.68477517100001,
    "lon": -87.66736844799999,
    "tags": {
      "name": "115th Street & Vincennes"
    }
  },
  {
    "lat": 41.876603649,
    "lon": -87.76459825,
    "tags": {
      "name": "Jackson & Central"
    }
  },
  {
    "lat": 41.808697784,
    "lon": -87.66239115500002,
    "tags": {
      "name": "47th Street & Laflin"
    }
  },
  {
    "lat": 41.70644028100003,
    "lon": -87.68824131000002,
    "tags": {
      "name": "103rd Street & Talman"
    }
  },
  {
    "lat": 41.94011202799999,
    "lon": -87.64428529999998,
    "tags": {
      "name": "Belmont & Broadway"
    }
  },
  {
    "lat": 41.79399699999999,
    "lon": -87.669601,
    "tags": {
      "name": "Garfield & Wood"
    }
  },
  {
    "lat": 41.78046531199999,
    "lon": -87.60617373299999,
    "tags": {
      "name": "63rd Street & Cottage Grove (Green Line)"
    }
  },
  {
    "lat": 41.85815960399998,
    "lon": -87.64676847800001,
    "tags": {
      "name": "18th Street & Halsted"
    }
  },
  {
    "lat": 41.975248771999986,
    "lon": -87.76264360900001,
    "tags": {
      "name": "Foster & Long"
    }
  },
  {
    "lat": 41.91707096499999,
    "lon": -87.75626209400002,
    "tags": {
      "name": "Grand & Laramie"
    }
  },
  {
    "lat": 41.997576794999986,
    "lon": -87.70925683600001,
    "tags": {
      "name": "Kedzie & Devon"
    }
  },
  {
    "lat": 41.83739837899998,
    "lon": -87.66600390999997,
    "tags": {
      "name": "Archer & Ashland"
    }
  },
  {
    "lat": 41.851748934,
    "lon": -87.72486869300002,
    "tags": {
      "name": "Pulaski & Cermak"
    }
  },
  {
    "lat": 41.75481569499999,
    "lon": -87.72230991800001,
    "tags": {
      "name": "Pulaski & 76th Street"
    }
  },
  {
    "lat": 41.970319210000014,
    "lon": -87.76726546200001,
    "tags": {
      "name": "Higgins & Central/Edmunds"
    }
  },
  {
    "lat": 41.801612267999985,
    "lon": -87.632057879,
    "tags": {
      "name": "Wells & 51st Street"
    }
  },
  {
    "lat": 41.985939883000015,
    "lon": -87.78782074499998,
    "tags": {
      "name": "Northwest Hwy & Nagle"
    }
  },
  {
    "lat": 41.750001,
    "lon": -87.683067,
    "tags": {
      "name": "79th Street & Western"
    }
  },
  {
    "lat": 41.79474283600001,
    "lon": -87.62280721100001,
    "tags": {
      "name": "Garfield & Michigan"
    }
  },
  {
    "lat": 41.89078532299999,
    "lon": -87.68682071699999,
    "tags": {
      "name": "Western & Grand"
    }
  },
  {
    "lat": 41.90650299999999,
    "lon": -87.711859001,
    "tags": {
      "name": "Homan & Hirsch"
    }
  },
  {
    "lat": 41.895366000000024,
    "lon": -87.70663099900003,
    "tags": {
      "name": "Kedzie & Chicago"
    }
  },
  {
    "lat": 41.73707597800001,
    "lon": -87.585737069,
    "tags": {
      "name": "Stony Island & 87th Street"
    }
  },
  {
    "lat": 41.98358424600002,
    "lon": -87.668866434,
    "tags": {
      "name": "Clark & Bryn Mawr"
    }
  },
  {
    "lat": 41.85764577600003,
    "lon": -87.62404107600003,
    "tags": {
      "name": "Michigan & 18th Street"
    }
  },
  {
    "lat": 41.82376837300001,
    "lon": -87.61653683999998,
    "tags": {
      "name": "Pershing & King Drive"
    }
  },
  {
    "lat": 41.77770701999998,
    "lon": -87.77651841699998,
    "tags": {
      "name": "63rd Street & Melvina"
    }
  },
  {
    "lat": 41.88132840399999,
    "lon": -87.67186305400003,
    "tags": {
      "name": "Madison & Wood"
    }
  },
  {
    "lat": 41.890948389000016,
    "lon": -87.62212367900003,
    "tags": {
      "name": "Illinois (Lower) & St. Clair"
    }
  },
  {
    "lat": 41.90252040799999,
    "lon": -87.73100620600002,
    "tags": {
      "name": "Division & Keeler"
    }
  },
  {
    "lat": 41.94685452800002,
    "lon": -87.67338937599999,
    "tags": {
      "name": "Addison & Lincoln"
    }
  },
  {
    "lat": 41.751157001000024,
    "lon": -87.61023499999999,
    "tags": {
      "name": "79th Street & St. Lawrence"
    }
  },
  {
    "lat": 41.779412745,
    "lon": -87.66384994700002,
    "tags": {
      "name": "63rd Street & Ashland (Green Line)"
    }
  },
  {
    "lat": 42.00891769200001,
    "lon": -87.682038949,
    "tags": {
      "name": "Lunt & Ridge"
    }
  },
  {
    "lat": 41.87382333900001,
    "lon": -87.68640800200001,
    "tags": {
      "name": "Harrison & Western"
    }
  },
  {
    "lat": 41.998065121000025,
    "lon": -87.665589748,
    "tags": {
      "name": "Devon & Glenwood"
    }
  },
  {
    "lat": 41.89493012600002,
    "lon": -87.76526377800002,
    "tags": {
      "name": "Chicago & Central"
    }
  },
  {
    "lat": 42.019551897999975,
    "lon": -87.68439803899997,
    "tags": {
      "name": "Howard & Ridge"
    }
  },
  {
    "lat": 41.85913506000003,
    "lon": -87.70533055499999,
    "tags": {
      "name": "16th Street & Kedzie"
    }
  },
  {
    "lat": 41.91733959499999,
    "lon": -87.71666649500003,
    "tags": {
      "name": "Armitage & Central Park"
    }
  },
  {
    "lat": 41.74944700100002,
    "lon": -87.73141500000003,
    "tags": {
      "name": "79th Street & Kostner"
    }
  },
  {
    "lat": 41.879358000000025,
    "lon": -87.63940099899997,
    "tags": {
      "name": "Adams & Canal"
    }
  },
  {
    "lat": 41.99030653099999,
    "lon": -87.71865377900002,
    "tags": {
      "name": "Peterson & Central Park"
    }
  },
  {
    "lat": 41.89566658799998,
    "lon": -87.702641427,
    "tags": {
      "name": "Chicago & Sacramento"
    }
  },
  {
    "lat": 41.87301839700001,
    "lon": -87.75465066800001,
    "tags": {
      "name": "Harrison & Laramie"
    }
  },
  {
    "lat": 41.852104252000004,
    "lon": -87.68616097199998,
    "tags": {
      "name": "Cermak & Western"
    }
  },
  {
    "lat": 42.019502147000026,
    "lon": -87.68028044900001,
    "tags": {
      "name": "Howard & Custer"
    }
  },
  {
    "lat": 41.82327775300001,
    "lon": -87.670121085,
    "tags": {
      "name": "Pershing & Wood"
    }
  },
  {
    "lat": 41.79414586299998,
    "lon": -87.660093184,
    "tags": {
      "name": "Garfield & Loomis"
    }
  },
  {
    "lat": 41.96543657699999,
    "lon": -87.65014913599998,
    "tags": {
      "name": "Wilson & Clarendon"
    }
  },
  {
    "lat": 41.902246327,
    "lon": -87.75061542600002,
    "tags": {
      "name": "Division & Lavergne"
    }
  },
  {
    "lat": 41.801203000999976,
    "lon": -87.669691,
    "tags": {
      "name": "51st Street & Wood"
    }
  },
  {
    "lat": 41.89479043199998,
    "lon": -87.76552391899997,
    "tags": {
      "name": "Chicago & Central"
    }
  },
  {
    "lat": 41.91083785000001,
    "lon": -87.64897588999997,
    "tags": {
      "name": "North Ave & Clybourn/Halsted (Red Line)"
    }
  },
  {
    "lat": 41.822709513999996,
    "lon": -87.69477959599999,
    "tags": {
      "name": "Pershing & California"
    }
  },
  {
    "lat": 41.751397236,
    "lon": -87.60022579399998,
    "tags": {
      "name": "79th Street & Ellis"
    }
  },
  {
    "lat": 41.96909402,
    "lon": -87.65993993199999,
    "tags": {
      "name": "Lawrence & Broadway"
    }
  },
  {
    "lat": 41.931561663000025,
    "lon": -87.75136143700001,
    "tags": {
      "name": "Diversey & Lavergne"
    }
  },
  {
    "lat": 41.896863627000016,
    "lon": -87.70280055400002,
    "tags": {
      "name": "Grand & Sacramento"
    }
  },
  {
    "lat": 41.93089308399999,
    "lon": -87.80083523100001,
    "tags": {
      "name": "Diversey & Sayre"
    }
  },
  {
    "lat": 41.983052842999996,
    "lon": -87.72834989799998,
    "tags": {
      "name": "Pulaski & Bryn Mawr"
    }
  },
  {
    "lat": 41.93964003100001,
    "lon": -87.68789067099999,
    "tags": {
      "name": "Western & Belmont/Clybourn"
    }
  },
  {
    "lat": 41.847657706999996,
    "lon": -87.61729198400002,
    "tags": {
      "name": "King Drive & 25th Street"
    }
  },
  {
    "lat": 41.94666952099999,
    "lon": -87.70908637399998,
    "tags": {
      "name": "Addison & Elston"
    }
  },
  {
    "lat": 41.96099881499998,
    "lon": -87.72956698299998,
    "tags": {
      "name": "Montrose & Elston"
    }
  },
  {
    "lat": 41.94618759100001,
    "lon": -87.72749216900002,
    "tags": {
      "name": "Pulaski & Addison"
    }
  },
  {
    "lat": 41.780100893999986,
    "lon": -87.63185496699998,
    "tags": {
      "name": "Yale & 63rd Street"
    }
  },
  {
    "lat": 41.761973001,
    "lon": -87.629753,
    "tags": {
      "name": "Wentworth & 73rd Street"
    }
  },
  {
    "lat": 41.693101024999976,
    "lon": -87.60966564400002,
    "tags": {
      "name": "Cottage Grove & 111th Street"
    }
  },
  {
    "lat": 42.054878342999984,
    "lon": -87.797903448,
    "tags": {
      "name": "Golf Road & Waukegan (Avon)"
    }
  },
  {
    "lat": 41.93825133500002,
    "lon": -87.78565251200001,
    "tags": {
      "name": "Belmont & Narragansett"
    }
  },
  {
    "lat": 41.88060933700001,
    "lon": -87.74512281099999,
    "tags": {
      "name": "Madison & Cicero"
    }
  },
  {
    "lat": 41.93256418499999,
    "lon": -87.66364782099998,
    "tags": {
      "name": "Diversey & Southport"
    }
  },
  {
    "lat": 41.97591942899999,
    "lon": -87.67929644399999,
    "tags": {
      "name": "Damen & Foster"
    }
  },
  {
    "lat": 41.84944829900002,
    "lon": -87.62689904199999,
    "tags": {
      "name": "State & 24th Street"
    }
  },
  {
    "lat": 41.924085823999974,
    "lon": -87.75132597700002,
    "tags": {
      "name": "Fullerton & Lavergne"
    }
  },
  {
    "lat": 41.84462757099999,
    "lon": -87.69534677799999,
    "tags": {
      "name": "26th Street & California Avenue"
    }
  },
  {
    "lat": 41.830952466999975,
    "lon": -87.62617168600002,
    "tags": {
      "name": "35th Street & State (Green Line)"
    }
  },
  {
    "lat": 41.800185,
    "lon": -87.63201200100002,
    "tags": {
      "name": "Wells & 52nd Street"
    }
  },
  {
    "lat": 41.83791345899999,
    "lon": -87.65117585500002,
    "tags": {
      "name": "31st Street & Morgan"
    }
  },
  {
    "lat": 41.764652075000015,
    "lon": -87.67362649199998,
    "tags": {
      "name": "Damen & 71st Street"
    }
  },
  {
    "lat": 41.82375463699998,
    "lon": -87.61735022900001,
    "tags": {
      "name": "Pershing & King Drive"
    }
  },
  {
    "lat": 41.67791638699998,
    "lon": -87.627568924,
    "tags": {
      "name": "119th Street & Wentworth"
    }
  },
  {
    "lat": 41.910556568000004,
    "lon": -87.667877734,
    "tags": {
      "name": "North Ave & Ashland"
    }
  },
  {
    "lat": 41.72088921400001,
    "lon": -87.67735639,
    "tags": {
      "name": "95th Street & Leavitt"
    }
  },
  {
    "lat": 41.96758666400001,
    "lon": -87.77692805200002,
    "tags": {
      "name": "Lawrence & Austin/Mason"
    }
  },
  {
    "lat": 41.960354000999985,
    "lon": -87.77225199999998,
    "tags": {
      "name": "Montrose & Menard"
    }
  },
  {
    "lat": 41.830750935000026,
    "lon": -87.64096853900003,
    "tags": {
      "name": "35th Street & Wallace"
    }
  },
  {
    "lat": 41.69174656000001,
    "lon": -87.67768895900002,
    "tags": {
      "name": "111th Street & Bell"
    }
  },
  {
    "lat": 42.00865640500001,
    "lon": -87.68995666199999,
    "tags": {
      "name": "Lunt & Western"
    }
  },
  {
    "lat": 41.87814000100002,
    "lon": -87.64115099999998,
    "tags": {
      "name": "Clinton & Jackson"
    }
  },
  {
    "lat": 41.86893196699998,
    "lon": -87.68084430800002,
    "tags": {
      "name": "Ogden & Taylor"
    }
  },
  {
    "lat": 41.97548306599998,
    "lon": -87.738211471,
    "tags": {
      "name": "Foster & Kostner"
    }
  },
  {
    "lat": 41.945659999999975,
    "lon": -87.781481999,
    "tags": {
      "name": "Addison & Melvina"
    }
  },
  {
    "lat": 41.96104200000002,
    "lon": -87.71306099999998,
    "tags": {
      "name": "Kimball & Montrose"
    }
  },
  {
    "lat": 41.78628903600003,
    "lon": -87.683963688,
    "tags": {
      "name": "Western & 59th Street"
    }
  },
  {
    "lat": 41.86899322099998,
    "lon": -87.66659906699999,
    "tags": {
      "name": "Ashland & Taylor"
    }
  },
  {
    "lat": 41.89171842799999,
    "lon": -87.63416133499999,
    "tags": {
      "name": "Wells & Grand"
    }
  },
  {
    "lat": 41.94661853299999,
    "lon": -87.642378157,
    "tags": {
      "name": "Lake Shore & Cornelia"
    }
  },
  {
    "lat": 41.98371405400002,
    "lon": -87.660337147,
    "tags": {
      "name": "Ridge & Broadway/Bryn Mawr"
    }
  },
  {
    "lat": 41.882192585999974,
    "lon": -87.68659653200001,
    "tags": {
      "name": "Western & Warren"
    }
  },
  {
    "lat": 41.73634175500001,
    "lon": -87.61459114600001,
    "tags": {
      "name": "King Drive & 87th Street"
    }
  },
  {
    "lat": 41.69850894699999,
    "lon": -87.72051155399998,
    "tags": {
      "name": "Pulaski & 107th Street"
    }
  },
  {
    "lat": 41.68964999999997,
    "lon": -87.70065599899999,
    "tags": {
      "name": "Kedzie & 112th Street"
    }
  },
  {
    "lat": 41.95502499999998,
    "lon": -87.78654799999998,
    "tags": {
      "name": "Narragansett & Belle Plaine"
    }
  },
  {
    "lat": 41.92697261500001,
    "lon": -87.64121211899999,
    "tags": {
      "name": "Clark & Arlington"
    }
  },
  {
    "lat": 41.745317,
    "lon": -87.62433800000002,
    "tags": {
      "name": "State & 82nd Street"
    }
  },
  {
    "lat": 41.76773413199999,
    "lon": -87.585862572,
    "tags": {
      "name": "Stony Island & 70th Street"
    }
  },
  {
    "lat": 41.72266300000001,
    "lon": -87.62485600000002,
    "tags": {
      "name": "95th Red Line Station"
    }
  },
  {
    "lat": 41.706859415,
    "lon": -87.65546759699998,
    "tags": {
      "name": "103rd Street & Vincennes"
    }
  },
  {
    "lat": 41.721876742999996,
    "lon": -87.62102781300001,
    "tags": {
      "name": "95th Street & Michigan"
    }
  },
  {
    "lat": 41.869553999999994,
    "lon": -87.65148299999998,
    "tags": {
      "name": "Taylor & Morgan"
    }
  },
  {
    "lat": 41.99010086599998,
    "lon": -87.73823201900001,
    "tags": {
      "name": "Peterson & Kostner"
    }
  },
  {
    "lat": 41.859205428999985,
    "lon": -87.70307081800001,
    "tags": {
      "name": "16th Street & Albany"
    }
  },
  {
    "lat": 41.800900651000006,
    "lon": -87.70360856999997,
    "tags": {
      "name": "51st Street & Kedzie"
    }
  },
  {
    "lat": 41.895731008999974,
    "lon": -87.696922228,
    "tags": {
      "name": "Chicago & California"
    }
  },
  {
    "lat": 41.819004072999974,
    "lon": -87.64322485399998,
    "tags": {
      "name": "Root & Union"
    }
  },
  {
    "lat": 41.873264000999995,
    "lon": -87.62100200100002,
    "tags": {
      "name": "Balbo & Columbus"
    }
  },
  {
    "lat": 41.93893034400003,
    "lon": -87.74379130199998,
    "tags": {
      "name": "Belmont & Kilpatrick"
    }
  },
  {
    "lat": 41.750200000999996,
    "lon": -87.682612,
    "tags": {
      "name": "79th Street & Western"
    }
  },
  {
    "lat": 41.953398381,
    "lon": -87.757354884,
    "tags": {
      "name": "Irving Park & Laramie"
    }
  },
  {
    "lat": 41.73679499999997,
    "lon": -87.597422,
    "tags": {
      "name": "87th Street & Greenwood"
    }
  },
  {
    "lat": 41.74950999999999,
    "lon": -87.72756499899998,
    "tags": {
      "name": "79th Street & Tripp"
    }
  },
  {
    "lat": 41.979721412,
    "lon": -87.66958082000002,
    "tags": {
      "name": "Ashland & Balmoral"
    }
  },
  {
    "lat": 41.877210504000004,
    "lon": -87.72104802299998,
    "tags": {
      "name": "Jackson & Hamlin"
    }
  },
  {
    "lat": 41.946016801999974,
    "lon": -87.756753188,
    "tags": {
      "name": "Addison & Laramie"
    }
  },
  {
    "lat": 41.94659370400001,
    "lon": -87.715061375,
    "tags": {
      "name": "Addison & St. Louis"
    }
  },
  {
    "lat": 41.878135000999976,
    "lon": -87.62419299999999,
    "tags": {
      "name": "Michigan & Jackson"
    }
  },
  {
    "lat": 41.93510673700001,
    "lon": -87.746597076,
    "tags": {
      "name": "Cicero & Wellington"
    }
  },
  {
    "lat": 41.77927613700001,
    "lon": -87.69332656099999,
    "tags": {
      "name": "California & 63rd Street"
    }
  },
  {
    "lat": 41.746924751999984,
    "lon": -87.66321660400001,
    "tags": {
      "name": "Ashland & 81st Street"
    }
  },
  {
    "lat": 41.76822045099999,
    "lon": -87.683206584,
    "tags": {
      "name": "Western & 69th Street"
    }
  },
  {
    "lat": 41.81730927900003,
    "lon": -87.69434508500001,
    "tags": {
      "name": "California & 42nd Street"
    }
  },
  {
    "lat": 41.79446755599997,
    "lon": -87.65479407499998,
    "tags": {
      "name": "Racine & Garfield"
    }
  },
  {
    "lat": 41.77487271899997,
    "lon": -87.60569198600001,
    "tags": {
      "name": "Cottage Grove & Marquette Rd"
    }
  },
  {
    "lat": 41.884361001,
    "lon": -87.745340999,
    "tags": {
      "name": "Cicero & Maypole"
    }
  },
  {
    "lat": 41.75185299999998,
    "lon": -87.55308000000002,
    "tags": {
      "name": "79th Street & Exchange"
    }
  },
  {
    "lat": 41.707288108,
    "lon": -87.611437465,
    "tags": {
      "name": "103rd Street & Eberhart"
    }
  },
  {
    "lat": 41.750709452000024,
    "lon": -87.63445710100001,
    "tags": {
      "name": "79th Street & Vincennes"
    }
  },
  {
    "lat": 41.89111519400001,
    "lon": -87.647777147,
    "tags": {
      "name": "Grand & Halsted/Milwaukee (Blue Line)"
    }
  },
  {
    "lat": 41.899870598999996,
    "lon": -87.66726668299998,
    "tags": {
      "name": "Ashland & Augusta"
    }
  },
  {
    "lat": 41.85209741699998,
    "lon": -87.69537029999998,
    "tags": {
      "name": "California & Cermak"
    }
  },
  {
    "lat": 41.92007542900001,
    "lon": -87.63703088400001,
    "tags": {
      "name": "Clark & Dickens"
    }
  },
  {
    "lat": 41.79532476600002,
    "lon": -87.587629838,
    "tags": {
      "name": "Lake Park & 55th Street"
    }
  },
  {
    "lat": 41.84166496,
    "lon": -87.657691865,
    "tags": {
      "name": "Archer & Loomis/Fuller"
    }
  },
  {
    "lat": 41.848831666000024,
    "lon": -87.675655286,
    "tags": {
      "name": "Damen & Blue Island"
    }
  },
  {
    "lat": 41.925476,
    "lon": -87.63616100000002,
    "tags": {
      "name": "Stockton & Fullerton"
    }
  },
  {
    "lat": 41.880580821000024,
    "lon": -87.755152527,
    "tags": {
      "name": "Laramie & Madison"
    }
  },
  {
    "lat": 41.77707496599999,
    "lon": -87.58646976699998,
    "tags": {
      "name": "Stony Island & 65th Street"
    }
  },
  {
    "lat": 41.93675700099999,
    "lon": -87.639359001,
    "tags": {
      "name": "Sheridan & Wellington"
    }
  },
  {
    "lat": 41.82041816200001,
    "lon": -87.61675719499999,
    "tags": {
      "name": "King Drive & 41st Street"
    }
  },
  {
    "lat": 42.00513842800001,
    "lon": -87.69023418199998,
    "tags": {
      "name": "Western & Pratt"
    }
  },
  {
    "lat": 41.75354500100002,
    "lon": -87.70260100000002,
    "tags": {
      "name": "Kedzie & 77th Street"
    }
  },
  {
    "lat": 41.96718199999998,
    "lon": -87.65473300000002,
    "tags": {
      "name": "Sheridan & Leland"
    }
  },
  {
    "lat": 41.92380936799998,
    "lon": -87.63951870699998,
    "tags": {
      "name": "Clark & Belden"
    }
  },
  {
    "lat": 41.800832539,
    "lon": -87.72836178199998,
    "tags": {
      "name": "Archer & Keeler"
    }
  },
  {
    "lat": 41.75859759000002,
    "lon": -87.61503501700003,
    "tags": {
      "name": "King Drive & 75th Street"
    }
  },
  {
    "lat": 41.722349049,
    "lon": -87.57527486800001,
    "tags": {
      "name": "Jeffery & 95th Street"
    }
  },
  {
    "lat": 41.95083427700001,
    "lon": -87.72764253700001,
    "tags": {
      "name": "Pulaski & Avondale"
    }
  },
  {
    "lat": 41.921858250000014,
    "lon": -87.63812875299999,
    "tags": {
      "name": "Clark & Webster"
    }
  },
  {
    "lat": 41.78052619099998,
    "lon": -87.60128796700002,
    "tags": {
      "name": "63rd Street & Ellis"
    }
  },
  {
    "lat": 41.90559277099999,
    "lon": -87.69680685499998,
    "tags": {
      "name": "California & Evergreen"
    }
  },
  {
    "lat": 41.936282000999995,
    "lon": -87.80660900100003,
    "tags": {
      "name": "Harlem & Barry"
    }
  },
  {
    "lat": 41.756674325999995,
    "lon": -87.61492821299998,
    "tags": {
      "name": "King Drive & 76th Street"
    }
  },
  {
    "lat": 41.98620338699999,
    "lon": -87.78760613200001,
    "tags": {
      "name": "Nagle & Northwest Hwy"
    }
  },
  {
    "lat": 41.77258351400002,
    "lon": -87.62986881699999,
    "tags": {
      "name": "Wentworth & Marquette Rd"
    }
  },
  {
    "lat": 41.750920812000004,
    "lon": -87.615038943,
    "tags": {
      "name": "King Drive & 79th Street"
    }
  },
  {
    "lat": 41.93938755400001,
    "lon": -87.687638359,
    "tags": {
      "name": "Belmont & Western/Clybourn"
    }
  },
  {
    "lat": 41.94701409200002,
    "lon": -87.64715229400002,
    "tags": {
      "name": "Broadway & Addison"
    }
  },
  {
    "lat": 41.85763838999998,
    "lon": -87.705606327,
    "tags": {
      "name": "Ogden & Kedzie"
    }
  },
  {
    "lat": 41.79283160599999,
    "lon": -87.760101072,
    "tags": {
      "name": "55th Street & Linder"
    }
  },
  {
    "lat": 41.89086794100001,
    "lon": -87.67918033000001,
    "tags": {
      "name": "Grand & Hoyne"
    }
  },
  {
    "lat": 41.86581473899997,
    "lon": -87.75701269899997,
    "tags": {
      "name": "5300 W Roosevelt"
    }
  },
  {
    "lat": 42.026351772,
    "lon": -87.75164916900002,
    "tags": {
      "name": "Oakton & Niles Avenue"
    }
  },
  {
    "lat": 41.867551615000025,
    "lon": -87.62666395399998,
    "tags": {
      "name": "Roosevelt Orange/Red/Green Line Station"
    }
  },
  {
    "lat": 41.85213485999998,
    "lon": -87.68312047,
    "tags": {
      "name": "Cermak & Oakley"
    }
  },
  {
    "lat": 41.78415566199999,
    "lon": -87.60267809800001,
    "tags": {
      "name": "61st Street & Ingleside"
    }
  },
  {
    "lat": 41.816789529999994,
    "lon": -87.61153845899997,
    "tags": {
      "name": "43rd Street & St. Lawrence"
    }
  },
  {
    "lat": 41.984774189999996,
    "lon": -87.787629675,
    "tags": {
      "name": "Nagle & Avondale/Somerset"
    }
  },
  {
    "lat": 41.931845572999976,
    "lon": -87.67797141699998,
    "tags": {
      "name": "Damen & Clybourn/Diversey"
    }
  },
  {
    "lat": 41.76634818100001,
    "lon": -87.57621992100002,
    "tags": {
      "name": "Jeffery & 71st Street"
    }
  },
  {
    "lat": 41.739936134999994,
    "lon": -87.64364030600001,
    "tags": {
      "name": "Halsted & Summit"
    }
  },
  {
    "lat": 41.89505681600002,
    "lon": -87.75104079200003,
    "tags": {
      "name": "Chicago & Lavergne"
    }
  },
  {
    "lat": 41.946303375000014,
    "lon": -87.73546128800001,
    "tags": {
      "name": "Addison & Milwaukee"
    }
  },
  {
    "lat": 41.99820753199998,
    "lon": -87.66519260400003,
    "tags": {
      "name": "Devon & Glenwood"
    }
  },
  {
    "lat": 41.830507522999994,
    "lon": -87.670619353,
    "tags": {
      "name": "35th Street & Wood"
    }
  },
  {
    "lat": 41.807839559,
    "lon": -87.73128186500003,
    "tags": {
      "name": "47th Street & Kildare"
    }
  },
  {
    "lat": 41.997619164000014,
    "lon": -87.699860914,
    "tags": {
      "name": "Devon & California"
    }
  },
  {
    "lat": 41.874141501999986,
    "lon": -87.674547007,
    "tags": {
      "name": "Harrison & Ogden"
    }
  },
  {
    "lat": 41.99084968,
    "lon": -87.674598866,
    "tags": {
      "name": "Peterson & Ravenswood"
    }
  },
  {
    "lat": 41.82622646499999,
    "lon": -87.607965385,
    "tags": {
      "name": "Cottage Grove & 38th Street"
    }
  },
  {
    "lat": 41.95856500000002,
    "lon": -87.767104001,
    "tags": {
      "name": "Central & Cullom"
    }
  },
  {
    "lat": 41.918866804000004,
    "lon": -87.726513925,
    "tags": {
      "name": "Pulaski & Dickens"
    }
  },
  {
    "lat": 41.71702524599999,
    "lon": -87.56457712899999,
    "tags": {
      "name": "9800 S Yates"
    }
  },
  {
    "lat": 41.80265954599997,
    "lon": -87.70372130499999,
    "tags": {
      "name": "5000 S Kedzie"
    }
  },
  {
    "lat": 41.915229533,
    "lon": -87.74591341299998,
    "tags": {
      "name": "Cicero & Cortland"
    }
  },
  {
    "lat": 41.738851340999986,
    "lon": -87.585220542,
    "tags": {
      "name": "Stony Island & 86th Street"
    }
  },
  {
    "lat": 41.99929700000001,
    "lon": -87.69960699900003,
    "tags": {
      "name": "California & Arthur"
    }
  },
  {
    "lat": 41.80022607400002,
    "lon": -87.72437330100001,
    "tags": {
      "name": "Pulaski Orange Line Station"
    }
  },
  {
    "lat": 41.76573000000002,
    "lon": -87.61062700000002,
    "tags": {
      "name": "71st Street & St. Lawrence"
    }
  },
  {
    "lat": 41.71679630699998,
    "lon": -87.721067081,
    "tags": {
      "name": "Pulaski & 97th Street"
    }
  },
  {
    "lat": 41.95403413299999,
    "lon": -87.70789432599997,
    "tags": {
      "name": "Irving Park & Kedzie"
    }
  },
  {
    "lat": 41.93171636300002,
    "lon": -87.711866326,
    "tags": {
      "name": "Milwaukee & Diversey/Kimball"
    }
  },
  {
    "lat": 41.84473600000001,
    "lon": -87.69528300000002,
    "tags": {
      "name": "California & 26th Street"
    }
  },
  {
    "lat": 41.783666799,
    "lon": -87.615784556,
    "tags": {
      "name": "King Drive & 61st Street"
    }
  },
  {
    "lat": 41.938311795000004,
    "lon": -87.64909884999997,
    "tags": {
      "name": "Halsted & Clark/Barry"
    }
  },
  {
    "lat": 41.81669680800002,
    "lon": -87.62615856399998,
    "tags": {
      "name": "State & 43rd Street"
    }
  },
  {
    "lat": 41.73718737799999,
    "lon": -87.70217509899999,
    "tags": {
      "name": "8600 S Kedzie"
    }
  },
  {
    "lat": 41.849597947999996,
    "lon": -87.64072092700002,
    "tags": {
      "name": "Archer & Normal"
    }
  },
  {
    "lat": 41.72142961399999,
    "lon": -87.53543598099998,
    "tags": {
      "name": "Ewing & 96th Street"
    }
  },
  {
    "lat": 41.929529333999994,
    "lon": -87.70795973000003,
    "tags": {
      "name": "Milwaukee & Kedzie"
    }
  },
  {
    "lat": 41.71644900000001,
    "lon": -87.620545999,
    "tags": {
      "name": "Michigan & 98th Street"
    }
  },
  {
    "lat": 41.679994781000005,
    "lon": -87.62066428700001,
    "tags": {
      "name": "Michigan & 118th Street"
    }
  },
  {
    "lat": 41.96025500000002,
    "lon": -87.77959099999998,
    "tags": {
      "name": "Montrose & Meade"
    }
  },
  {
    "lat": 41.735002898999994,
    "lon": -87.70743664700001,
    "tags": {
      "name": "3400 W 87th Street"
    }
  },
  {
    "lat": 41.858600000000024,
    "lon": -87.74060200000002,
    "tags": {
      "name": "16th Street & 46th Court"
    }
  },
  {
    "lat": 41.94512100100002,
    "lon": -87.821795001,
    "tags": {
      "name": "Addison & Ozanam"
    }
  },
  {
    "lat": 41.691667404999976,
    "lon": -87.68615351099999,
    "tags": {
      "name": "2600 W 111th Street"
    }
  },
  {
    "lat": 41.77340329499998,
    "lon": -87.57534460099998,
    "tags": {
      "name": "67th Street & Chappel"
    }
  },
  {
    "lat": 41.86662475100002,
    "lon": -87.67356740399998,
    "tags": {
      "name": "Roosevelt & Wolcott"
    }
  },
  {
    "lat": 41.932792878999976,
    "lon": -87.642623469,
    "tags": {
      "name": "Diversey & Hampden Court"
    }
  },
  {
    "lat": 41.735276320000025,
    "lon": -87.68763450199998,
    "tags": {
      "name": "2600 W 87th Street"
    }
  },
  {
    "lat": 41.92375734799998,
    "lon": -87.77335086199997,
    "tags": {
      "name": "Fullerton & Marmora"
    }
  },
  {
    "lat": 41.801903469000024,
    "lon": -87.62784288799998,
    "tags": {
      "name": "51st Street & Federal"
    }
  },
  {
    "lat": 41.77310241800001,
    "lon": -87.60338649300002,
    "tags": {
      "name": "67th Street & Drexel"
    }
  },
  {
    "lat": 41.75871229699999,
    "lon": -87.581057558,
    "tags": {
      "name": "75th Street & Cregier"
    }
  },
  {
    "lat": 42.02619900000002,
    "lon": -87.71590099899998,
    "tags": {
      "name": "Oakton & St. Louis"
    }
  },
  {
    "lat": 41.96798572099999,
    "lon": -87.74540135199999,
    "tags": {
      "name": "Lawrence & Kilpatrick"
    }
  },
  {
    "lat": 41.91682700000001,
    "lon": -87.74954600000001,
    "tags": {
      "name": "Armitage & Lamon"
    }
  },
  {
    "lat": 41.93086957100002,
    "lon": -87.80276846999999,
    "tags": {
      "name": "Diversey & Nordica"
    }
  },
  {
    "lat": 41.93857022999998,
    "lon": -87.63956872300002,
    "tags": {
      "name": "Sheridan & Briar"
    }
  },
  {
    "lat": 41.961208,
    "lon": -87.71320699900002,
    "tags": {
      "name": "Kimball & Montrose"
    }
  },
  {
    "lat": 41.996202788999994,
    "lon": -87.66055920600002,
    "tags": {
      "name": "Broadway & Rosemont"
    }
  },
  {
    "lat": 41.92091291999998,
    "lon": -87.726760937,
    "tags": {
      "name": "Pulaski & Palmer"
    }
  },
  {
    "lat": 41.757006461,
    "lon": -87.59343540100002,
    "tags": {
      "name": "South Chicago & 76th Street"
    }
  },
  {
    "lat": 41.86698771900001,
    "lon": -87.67640628999999,
    "tags": {
      "name": "Damen & Roosevelt"
    }
  },
  {
    "lat": 41.90087399999999,
    "lon": -87.628399,
    "tags": {
      "name": "State & Oak"
    }
  },
  {
    "lat": 41.836986937000006,
    "lon": -87.72444387299998,
    "tags": {
      "name": "Pulaski & 31st Street"
    }
  },
  {
    "lat": 41.74733349000002,
    "lon": -87.61494068600001,
    "tags": {
      "name": "King Drive & 81st Street"
    }
  },
  {
    "lat": 41.881587001000014,
    "lon": -87.66203999999999,
    "tags": {
      "name": "Madison & Loomis"
    }
  },
  {
    "lat": 41.86753563100001,
    "lon": -87.62782764500002,
    "tags": {
      "name": "Roosevelt & State"
    }
  },
  {
    "lat": 41.89493146900003,
    "lon": -87.76074174799999,
    "tags": {
      "name": "Chicago & Long"
    }
  },
  {
    "lat": 41.96854817600001,
    "lon": -87.70386801199999,
    "tags": {
      "name": "Lawrence & Sacramento"
    }
  },
  {
    "lat": 41.759574192,
    "lon": -87.65920512899999,
    "tags": {
      "name": "74th Street & Loomis"
    }
  },
  {
    "lat": 41.75110999999998,
    "lon": -87.62519999900002,
    "tags": {
      "name": "79th Red Line Station"
    }
  },
  {
    "lat": 41.82378571300001,
    "lon": -87.62670337499998,
    "tags": {
      "name": "Pershing & State"
    }
  },
  {
    "lat": 41.968147988,
    "lon": -87.72792107599997,
    "tags": {
      "name": "Pulaski & Lawrence"
    }
  },
  {
    "lat": 41.81317237600001,
    "lon": -87.61650870300002,
    "tags": {
      "name": "King Drive & 45th Street"
    }
  },
  {
    "lat": 41.88961957700002,
    "lon": -87.71111998499998,
    "tags": {
      "name": "Homan & Franklin"
    }
  },
  {
    "lat": 41.76510561200001,
    "lon": -87.644323617,
    "tags": {
      "name": "Halsted & 71st Street"
    }
  },
  {
    "lat": 41.691470224,
    "lon": -87.70072914000002,
    "tags": {
      "name": "Kedzie & 111th Street"
    }
  },
  {
    "lat": 41.82428475400002,
    "lon": -87.606979072,
    "tags": {
      "name": "Cottage Grove & Pershing"
    }
  },
  {
    "lat": 41.73876200000001,
    "lon": -87.70201299899998,
    "tags": {
      "name": "Kedzie & 85th Street"
    }
  },
  {
    "lat": 41.93193723899998,
    "lon": -87.68803463400002,
    "tags": {
      "name": "Western & Elston/Diversey"
    }
  },
  {
    "lat": 41.78223442500001,
    "lon": -87.74258775800001,
    "tags": {
      "name": "Cicero & 61st Street"
    }
  },
  {
    "lat": 41.72598361299998,
    "lon": -87.57551469700002,
    "tags": {
      "name": "Jeffery & 93rd Street"
    }
  },
  {
    "lat": 41.84524967300001,
    "lon": -87.6416671,
    "tags": {
      "name": "Wallace & 26th Street"
    }
  },
  {
    "lat": 41.752499075,
    "lon": -87.64412227899999,
    "tags": {
      "name": "Halsted & 78th Street"
    }
  },
  {
    "lat": 41.91730000000001,
    "lon": -87.71036800000002,
    "tags": {
      "name": "Armitage & Spaulding"
    }
  },
  {
    "lat": 41.78037629300002,
    "lon": -87.60429231299997,
    "tags": {
      "name": "63rd Street & Drexel"
    }
  },
  {
    "lat": 41.70743580999999,
    "lon": -87.603481472,
    "tags": {
      "name": "103rd Street & Corliss"
    }
  },
  {
    "lat": 41.89004580300002,
    "lon": -87.725833679,
    "tags": {
      "name": "Pulaski & Ferdinand"
    }
  },
  {
    "lat": 41.953919735,
    "lon": -87.72754468699998,
    "tags": {
      "name": "Pulaski & Irving Park"
    }
  },
  {
    "lat": 41.90711357499998,
    "lon": -87.667477497,
    "tags": {
      "name": "Ashland & Blackhawk"
    }
  },
  {
    "lat": 41.90589491100002,
    "lon": -87.74593133299999,
    "tags": {
      "name": "Cicero & Hirsch"
    }
  },
  {
    "lat": 41.876689999999996,
    "lon": -87.62416000000002,
    "tags": {
      "name": "Michigan & Van Buren"
    }
  },
  {
    "lat": 41.90174400000001,
    "lon": -87.631310999,
    "tags": {
      "name": "Clark & Maple"
    }
  },
  {
    "lat": 41.83705400100001,
    "lon": -87.72426599900001,
    "tags": {
      "name": "Pulaski & 31st Street"
    }
  },
  {
    "lat": 41.86314714399998,
    "lon": -87.70548752899998,
    "tags": {
      "name": "Kedzie & Douglas"
    }
  },
  {
    "lat": 41.72927493499998,
    "lon": -87.60451851800002,
    "tags": {
      "name": "Cottage Grove & 91st Street"
    }
  },
  {
    "lat": 41.877182226,
    "lon": -87.71078926199999,
    "tags": {
      "name": "Homan & Jackson"
    }
  },
  {
    "lat": 41.924041999999986,
    "lon": -87.756234,
    "tags": {
      "name": "Fullerton & Laramie"
    }
  },
  {
    "lat": 41.76876694800001,
    "lon": -87.64464016199997,
    "tags": {
      "name": "69th Street & Halsted"
    }
  },
  {
    "lat": 41.797295211999995,
    "lon": -87.69379262400003,
    "tags": {
      "name": "California & 53rd Street"
    }
  },
  {
    "lat": 41.89475599999997,
    "lon": -87.628060001,
    "tags": {
      "name": "State & Huron"
    }
  },
  {
    "lat": 41.91678384400001,
    "lon": -87.75351536400001,
    "tags": {
      "name": "Grand & Leclaire/Armitage"
    }
  },
  {
    "lat": 41.93960973399999,
    "lon": -87.671207918,
    "tags": {
      "name": "Belmont & Paulina"
    }
  },
  {
    "lat": 41.851896458,
    "lon": -87.690188342,
    "tags": {
      "name": "Cermak & Rockwell"
    }
  },
  {
    "lat": 41.70588022599998,
    "lon": -87.71612187800002,
    "tags": {
      "name": "103rd Street & Hamlin"
    }
  },
  {
    "lat": 41.961439299000006,
    "lon": -87.67515599900003,
    "tags": {
      "name": "Montrose Brown Line Station"
    }
  },
  {
    "lat": 41.80842774400003,
    "lon": -87.67721885499998,
    "tags": {
      "name": "47th Street & Hoyne"
    }
  },
  {
    "lat": 41.87009734100002,
    "lon": -87.64681857300002,
    "tags": {
      "name": "Halsted & Taylor"
    }
  },
  {
    "lat": 41.91005796100001,
    "lon": -87.68733560300001,
    "tags": {
      "name": "Western & North Ave"
    }
  },
  {
    "lat": 41.93597184800001,
    "lon": -87.678276116,
    "tags": {
      "name": "Damen & Wellington"
    }
  },
  {
    "lat": 41.82619848799999,
    "lon": -87.684731,
    "tags": {
      "name": "Archer & Western Avenue"
    }
  },
  {
    "lat": 41.78726213499999,
    "lon": -87.625614719,
    "tags": {
      "name": "State & 59th Street"
    }
  },
  {
    "lat": 41.786519639999995,
    "lon": -87.693689097,
    "tags": {
      "name": "California & 59th Street"
    }
  },
  {
    "lat": 41.866016848000015,
    "lon": -87.71062570599997,
    "tags": {
      "name": "Homan & Roosevelt"
    }
  },
  {
    "lat": 41.973382947999994,
    "lon": -87.77863314199999,
    "tags": {
      "name": "Higgins & Austin"
    }
  },
  {
    "lat": 41.890836901,
    "lon": -87.623993472,
    "tags": {
      "name": "Michigan (Lower) & Illinois"
    }
  },
  {
    "lat": 41.88805620199997,
    "lon": -87.62445143299999,
    "tags": {
      "name": "Michigan (Lower) & E. Wacker"
    }
  },
  {
    "lat": 41.89100608199999,
    "lon": -87.62429240199998,
    "tags": {
      "name": "Michigan (Lower) & Illinois"
    }
  },
  {
    "lat": 41.89018553,
    "lon": -87.62396733000003,
    "tags": {
      "name": "Michigan (Lower) & Hubbard"
    }
  },
  {
    "lat": 41.85399361399999,
    "lon": -87.631886985,
    "tags": {
      "name": "Wentworth & Archer"
    }
  },
  {
    "lat": 41.856898881999996,
    "lon": -87.70787225800001,
    "tags": {
      "name": "Ogden & Spaulding"
    }
  },
  {
    "lat": 41.93873824399998,
    "lon": -87.74904333,
    "tags": {
      "name": "Belmont & Lamon"
    }
  },
  {
    "lat": 41.93893101399999,
    "lon": -87.73416153400001,
    "tags": {
      "name": "Belmont & Kenosha"
    }
  },
  {
    "lat": 41.749804125000026,
    "lon": -87.643701835,
    "tags": {
      "name": "Halsted & 79th Street Terminal"
    }
  },
  {
    "lat": 42.00774779300002,
    "lon": -87.67227919599998,
    "tags": {
      "name": "Morse & Paulina"
    }
  },
  {
    "lat": 41.93943344500002,
    "lon": -87.70306968800003,
    "tags": {
      "name": "Belmont & Sacramento"
    }
  },
  {
    "lat": 41.938131258,
    "lon": -87.801577958,
    "tags": {
      "name": "Belmont & Sayre"
    }
  },
  {
    "lat": 41.92564236700002,
    "lon": -87.640658712,
    "tags": {
      "name": "Clark & Fullerton"
    }
  },
  {
    "lat": 41.83836723000002,
    "lon": -87.61676824199998,
    "tags": {
      "name": "31st Street & King Drive"
    }
  },
  {
    "lat": 41.831169606,
    "lon": -87.626693843,
    "tags": {
      "name": "State & 35th Street"
    }
  },
  {
    "lat": 41.751104484999985,
    "lon": -87.605358196,
    "tags": {
      "name": "Cottage Grove & 79th Street"
    }
  },
  {
    "lat": 41.80186828199999,
    "lon": -87.61623401499997,
    "tags": {
      "name": "King Drive & 51st Street"
    }
  },
  {
    "lat": 41.93181700100001,
    "lon": -87.71178500100001,
    "tags": {
      "name": "Milwaukee & Diversey/Kimball"
    }
  },
  {
    "lat": 41.87831799999998,
    "lon": -87.62777,
    "tags": {
      "name": "State & Jackson"
    }
  },
  {
    "lat": 41.90302615600001,
    "lon": -87.69698109500001,
    "tags": {
      "name": "California & Division"
    }
  },
  {
    "lat": 41.87906800000002,
    "lon": -87.63086700100001,
    "tags": {
      "name": "Clark & Adams"
    }
  },
  {
    "lat": 41.89131804700003,
    "lon": -87.647945107,
    "tags": {
      "name": "Milwaukee & Grand/Halsted (Blue Line)"
    }
  },
  {
    "lat": 41.99067965699999,
    "lon": -87.81672379100002,
    "tags": {
      "name": "Talcott & Oriole"
    }
  },
  {
    "lat": 41.866296186,
    "lon": -87.68615653799998,
    "tags": {
      "name": "Western & Roosevelt"
    }
  },
  {
    "lat": 41.92396008700001,
    "lon": -87.77580840500002,
    "tags": {
      "name": "Austin & Fullerton"
    }
  },
  {
    "lat": 41.87691004499999,
    "lon": -87.74525047600002,
    "tags": {
      "name": "Cicero & Jackson"
    }
  },
  {
    "lat": 41.79847858900001,
    "lon": -87.74319683499999,
    "tags": {
      "name": "Archer & Cicero"
    }
  },
  {
    "lat": 41.86602477700001,
    "lon": -87.72525863700002,
    "tags": {
      "name": "Pulaski & Roosevelt"
    }
  },
  {
    "lat": 41.969308395999974,
    "lon": -87.649759803,
    "tags": {
      "name": "Marine Drive & Lawrence"
    }
  },
  {
    "lat": 42.04067482800002,
    "lon": -87.74717406799999,
    "tags": {
      "name": "Dempster & Skokie Blvd"
    }
  },
  {
    "lat": 41.773897405000014,
    "lon": -87.783726016,
    "tags": {
      "name": "65th Street & Natchez"
    }
  },
  {
    "lat": 41.918214036999984,
    "lon": -87.76319800300001,
    "tags": {
      "name": "5500 W Grand"
    }
  },
  {
    "lat": 41.721153000000015,
    "lon": -87.65926300000001,
    "tags": {
      "name": "95th Street & Bishop"
    }
  },
  {
    "lat": 41.975659095000026,
    "lon": -87.70279616300002,
    "tags": {
      "name": "Foster & Virginia"
    }
  },
  {
    "lat": 41.953833385999985,
    "lon": -87.70568313400003,
    "tags": {
      "name": "Irving Park & Albany"
    }
  },
  {
    "lat": 41.76889399999999,
    "lon": -87.63487500000002,
    "tags": {
      "name": "69th Street & Stewart"
    }
  },
  {
    "lat": 41.79396924399998,
    "lon": -87.67457833700001,
    "tags": {
      "name": "Garfield & Damen"
    }
  },
  {
    "lat": 41.92445662199998,
    "lon": -87.73647819199999,
    "tags": {
      "name": "Fullerton & Kostner"
    }
  },
  {
    "lat": 41.91049688200002,
    "lon": -87.682227695,
    "tags": {
      "name": "North Ave & Leavitt"
    }
  },
  {
    "lat": 41.876803929000005,
    "lon": -87.74934028400003,
    "tags": {
      "name": "Jackson & Lavergne"
    }
  },
  {
    "lat": 41.952915339000015,
    "lon": -87.79076285899998,
    "tags": {
      "name": "Irving Park & Neenah"
    }
  },
  {
    "lat": 41.873692817999995,
    "lon": -87.696002125,
    "tags": {
      "name": "California & Harrison"
    }
  },
  {
    "lat": 41.87358674000001,
    "lon": -87.696180959,
    "tags": {
      "name": "California & Harrison"
    }
  },
  {
    "lat": 41.774737800000025,
    "lon": -87.74683541500002,
    "tags": {
      "name": "65th Street & Lavergne"
    }
  },
  {
    "lat": 41.78616725500001,
    "lon": -87.71271870499999,
    "tags": {
      "name": "59th Street & Central Park"
    }
  },
  {
    "lat": 41.802288137999994,
    "lon": -87.60785102,
    "tags": {
      "name": "51st Street & Evans"
    }
  },
  {
    "lat": 41.95435275699998,
    "lon": -87.672089422,
    "tags": {
      "name": "Irving Park & Hermitage"
    }
  },
  {
    "lat": 41.724798023999995,
    "lon": -87.53818992800001,
    "tags": {
      "name": "Ewing & 94th Street"
    }
  },
  {
    "lat": 41.72664459700002,
    "lon": -87.540050522,
    "tags": {
      "name": "9320 S Ewing"
    }
  },
  {
    "lat": 41.77773100000002,
    "lon": -87.65435300000001,
    "tags": {
      "name": "Racine & 64th Street"
    }
  },
  {
    "lat": 41.655717891999984,
    "lon": -87.60506921500001,
    "tags": {
      "name": "Langley & 132nd Street"
    }
  },
  {
    "lat": 41.77974102600001,
    "lon": -87.64995381099999,
    "tags": {
      "name": "63rd Street & Morgan"
    }
  },
  {
    "lat": 41.77600095899999,
    "lon": -87.65445521999999,
    "tags": {
      "name": "Racine & 65th Street"
    }
  },
  {
    "lat": 41.71223800000001,
    "lon": -87.64286700000002,
    "tags": {
      "name": "Halsted & 100th Street"
    }
  },
  {
    "lat": 42.034082522000006,
    "lon": -87.68691501900003,
    "tags": {
      "name": "Ridge & Main"
    }
  },
  {
    "lat": 41.81877036999998,
    "lon": -87.69677624799999,
    "tags": {
      "name": "Archer & Francisco"
    }
  },
  {
    "lat": 41.88555000000002,
    "lon": -87.75517800099999,
    "tags": {
      "name": "Laramie & Fulton"
    }
  },
  {
    "lat": 41.77743200100002,
    "lon": -87.62533000000002,
    "tags": {
      "name": "State & 64th Street"
    }
  },
  {
    "lat": 41.88867963000001,
    "lon": -87.805269469,
    "tags": {
      "name": "Harlem & Lake"
    }
  },
  {
    "lat": 41.950638000000026,
    "lon": -87.807119,
    "tags": {
      "name": "Harlem & Byron"
    }
  },
  {
    "lat": 41.844289,
    "lon": -87.717332999,
    "tags": {
      "name": "26th Street & Lawndale"
    }
  },
  {
    "lat": 41.961288000000025,
    "lon": -87.68636800000002,
    "tags": {
      "name": "Montrose & Oakley"
    }
  },
  {
    "lat": 41.976335000000006,
    "lon": -87.65475500100001,
    "tags": {
      "name": "Foster & Sheridan"
    }
  },
  {
    "lat": 41.85864458399999,
    "lon": -87.73489557699997,
    "tags": {
      "name": "16th Street & Kostner"
    }
  },
  {
    "lat": 41.69765500099999,
    "lon": -87.64242999999999,
    "tags": {
      "name": "Halsted & 108th Street"
    }
  },
  {
    "lat": 41.770487488000015,
    "lon": -87.64446722299999,
    "tags": {
      "name": "Halsted & 68th Street"
    }
  },
  {
    "lat": 41.73452004000001,
    "lon": -87.731752858,
    "tags": {
      "name": "87th Street & Kostner"
    }
  },
  {
    "lat": 41.692422033000014,
    "lon": -87.63308275100002,
    "tags": {
      "name": "111th Street & Stewart"
    }
  },
  {
    "lat": 41.975660000000005,
    "lon": -87.71122300000002,
    "tags": {
      "name": "Foster & Spaulding"
    }
  },
  {
    "lat": 41.938829296999984,
    "lon": -87.73964006300002,
    "tags": {
      "name": "Belmont & Kilbourn"
    }
  },
  {
    "lat": 41.89070031699998,
    "lon": -87.67950809299998,
    "tags": {
      "name": "Grand & Hoyne"
    }
  },
  {
    "lat": 41.937692114000015,
    "lon": -87.82638929299998,
    "tags": {
      "name": "Belmont & Pacific (80th Avenue)"
    }
  },
  {
    "lat": 41.735472621999975,
    "lon": -87.676134763,
    "tags": {
      "name": "87th Street & Longwood"
    }
  },
  {
    "lat": 42.007795009999995,
    "lon": -87.66791570700002,
    "tags": {
      "name": "Morse & Greenview"
    }
  },
  {
    "lat": 41.87651299999999,
    "lon": -87.76144599999998,
    "tags": {
      "name": "Jackson & Lotus"
    }
  },
  {
    "lat": 41.996853999999985,
    "lon": -87.819091001,
    "tags": {
      "name": "Devon & Overhill"
    }
  },
  {
    "lat": 41.70748636100001,
    "lon": -87.59894793000001,
    "tags": {
      "name": "1001 E 103rd Street"
    }
  },
  {
    "lat": 41.77381828099999,
    "lon": -87.79818391100002,
    "tags": {
      "name": "65th Street & Nottingham"
    }
  },
  {
    "lat": 41.78529500000002,
    "lon": -87.630224999,
    "tags": {
      "name": "Wentworth & 60th Street"
    }
  },
  {
    "lat": 41.782983,
    "lon": -87.63017700099999,
    "tags": {
      "name": "Wentworth & 61st Street"
    }
  },
  {
    "lat": 41.91162200100001,
    "lon": -87.72630499899998,
    "tags": {
      "name": "Pulaski & Wabansia"
    }
  },
  {
    "lat": 41.869359524000004,
    "lon": -87.62035470500001,
    "tags": {
      "name": "1100 S Columbus (Pedestrian Underpass)"
    }
  },
  {
    "lat": 41.86916520699998,
    "lon": -87.77414588599999,
    "tags": {
      "name": "Austin & Harvard/Arthington"
    }
  },
  {
    "lat": 41.78442099799997,
    "lon": -87.59136359299998,
    "tags": {
      "name": "Dorchester & 61st Street"
    }
  },
  {
    "lat": 41.93249129200001,
    "lon": -87.80646466799999,
    "tags": {
      "name": "Harlem & George"
    }
  },
  {
    "lat": 41.73738400000002,
    "lon": -87.67267499899998,
    "tags": {
      "name": "Damen & 86th Street"
    }
  },
  {
    "lat": 41.893186000000014,
    "lon": -87.627992,
    "tags": {
      "name": "State & Ontario"
    }
  },
  {
    "lat": 41.97517314700002,
    "lon": -87.74787503099998,
    "tags": {
      "name": "Cicero & Foster"
    }
  },
  {
    "lat": 41.872091001,
    "lon": -87.63052499899999,
    "tags": {
      "name": "Clark & Polk"
    }
  },
  {
    "lat": 41.80514524900002,
    "lon": -87.68402008499999,
    "tags": {
      "name": "Western Orange Line Station"
    }
  },
  {
    "lat": 41.77869800000002,
    "lon": -87.72988799900003,
    "tags": {
      "name": "63rd Street & Kildare"
    }
  },
  {
    "lat": 41.777335209,
    "lon": -87.80325227100002,
    "tags": {
      "name": "63rd Street & 73rd Avenue"
    }
  },
  {
    "lat": 41.886607974000015,
    "lon": -87.69629989700002,
    "tags": {
      "name": "Fulton & California"
    }
  },
  {
    "lat": 41.70755392500001,
    "lon": -87.60395425600001,
    "tags": {
      "name": "103rd Street & Corliss"
    }
  },
  {
    "lat": 41.70701549400002,
    "lon": -87.64030210200002,
    "tags": {
      "name": "103rd Street & Union"
    }
  },
  {
    "lat": 41.67792393600001,
    "lon": -87.63697085500002,
    "tags": {
      "name": "119th Street & Wallace"
    }
  },
  {
    "lat": 41.877409822999994,
    "lon": -87.70378268899998,
    "tags": {
      "name": "Jackson & Albany"
    }
  },
  {
    "lat": 41.77438800499999,
    "lon": -87.76632824199999,
    "tags": {
      "name": "65th Street & Menard"
    }
  },
  {
    "lat": 41.73618583799998,
    "lon": -87.64109786300003,
    "tags": {
      "name": "87th Street & Union"
    }
  },
  {
    "lat": 41.736039527,
    "lon": -87.632824863,
    "tags": {
      "name": "87th Street & Holland"
    }
  },
  {
    "lat": 41.997772704,
    "lon": -87.69220294500002,
    "tags": {
      "name": "Devon & Campbell"
    }
  },
  {
    "lat": 41.952614833999974,
    "lon": -87.81696526899998,
    "tags": {
      "name": "Irving Park & Oriole"
    }
  },
  {
    "lat": 41.663304014000005,
    "lon": -87.64133441299998,
    "tags": {
      "name": "127th Street & Halsted"
    }
  },
  {
    "lat": 41.954044694000004,
    "lon": -87.70546238499998,
    "tags": {
      "name": "Irving Park & Albany"
    }
  },
  {
    "lat": 41.98380400000002,
    "lon": -87.655508,
    "tags": {
      "name": "Bryn Mawr & Sheridan"
    }
  },
  {
    "lat": 41.92485643499998,
    "lon": -87.70764323899999,
    "tags": {
      "name": "Fullerton & Kedzie"
    }
  },
  {
    "lat": 41.89544462600003,
    "lon": -87.72590116499998,
    "tags": {
      "name": "Chicago & Pulaski"
    }
  },
  {
    "lat": 41.749618156,
    "lon": -87.72166730599997,
    "tags": {
      "name": "79th Street & Pulaski"
    }
  },
  {
    "lat": 41.79402724200003,
    "lon": -87.63752305700001,
    "tags": {
      "name": "Garfield & Normal"
    }
  },
  {
    "lat": 41.852568314999985,
    "lon": -87.646669068,
    "tags": {
      "name": "Cermak & Halsted"
    }
  },
  {
    "lat": 41.70754288500001,
    "lon": -87.59455304699998,
    "tags": {
      "name": "103rd Street & Woodlawn"
    }
  },
  {
    "lat": 41.993496315000016,
    "lon": -87.78746222900003,
    "tags": {
      "name": "Nagle & Raven"
    }
  },
  {
    "lat": 41.89850512800001,
    "lon": -87.77517594,
    "tags": {
      "name": "Austin & Augusta"
    }
  },
  {
    "lat": 41.72587161400003,
    "lon": -87.584820778,
    "tags": {
      "name": "Stony Island & 93rd Street"
    }
  },
  {
    "lat": 41.841043920999994,
    "lon": -87.70485969399999,
    "tags": {
      "name": "Kedzie & 28th Street"
    }
  },
  {
    "lat": 41.89806900000002,
    "lon": -87.62396000000001,
    "tags": {
      "name": "Michigan & Chestnut"
    }
  },
  {
    "lat": 41.794402220999984,
    "lon": -87.61589863799998,
    "tags": {
      "name": "King Drive & Garfield"
    }
  },
  {
    "lat": 41.93584099999998,
    "lon": -87.678159,
    "tags": {
      "name": "Damen & Wellington"
    }
  },
  {
    "lat": 41.81680750300001,
    "lon": -87.723749763,
    "tags": {
      "name": "Pulaski & 42nd Street"
    }
  },
  {
    "lat": 41.95254667699999,
    "lon": -87.81937015800003,
    "tags": {
      "name": "Irving Park & Overhill"
    }
  },
  {
    "lat": 41.691836335999994,
    "lon": -87.68348517800001,
    "tags": {
      "name": "111th Street & Campbell"
    }
  },
  {
    "lat": 42.055434752999986,
    "lon": -87.698978178,
    "tags": {
      "name": "Dodge & Simpson"
    }
  },
  {
    "lat": 41.83851199999998,
    "lon": -87.62997999999999,
    "tags": {
      "name": "LaSalle & 31st Street"
    }
  },
  {
    "lat": 41.764024000000006,
    "lon": -87.72211699899998,
    "tags": {
      "name": "71st Street & Pulaski"
    }
  },
  {
    "lat": 41.77869370399998,
    "lon": -87.71524271800001,
    "tags": {
      "name": "63rd Street & Lawndale"
    }
  },
  {
    "lat": 41.89574859300001,
    "lon": -87.682069555,
    "tags": {
      "name": "Chicago & Leavitt"
    }
  },
  {
    "lat": 41.75036192900001,
    "lon": -87.658339985,
    "tags": {
      "name": "79th Street & Loomis"
    }
  },
  {
    "lat": 41.859055001,
    "lon": -87.70305200000001,
    "tags": {
      "name": "16th Street & Albany"
    }
  },
  {
    "lat": 41.89524721599997,
    "lon": -87.71151726199997,
    "tags": {
      "name": "Homan & Chicago"
    }
  },
  {
    "lat": 41.90402022400002,
    "lon": -87.632784405,
    "tags": {
      "name": "LaSalle & Division"
    }
  },
  {
    "lat": 41.88581891899997,
    "lon": -87.647411261,
    "tags": {
      "name": "Halsted & Lake"
    }
  },
  {
    "lat": 41.845219472,
    "lon": -87.685316075,
    "tags": {
      "name": "Western & 26th Street"
    }
  },
  {
    "lat": 41.89182695599999,
    "lon": -87.62955507599997,
    "tags": {
      "name": "Dearborn & Grand"
    }
  },
  {
    "lat": 41.84442175999999,
    "lon": -87.724478933,
    "tags": {
      "name": "Pulaski & 26th Street"
    }
  },
  {
    "lat": 41.94577864799999,
    "lon": -87.76666405600002,
    "tags": {
      "name": "Central & Addison"
    }
  },
  {
    "lat": 41.88410655199999,
    "lon": -87.69630791499998,
    "tags": {
      "name": "California & Lake (Green Line)"
    }
  },
  {
    "lat": 41.88219675800002,
    "lon": -87.77456775000002,
    "tags": {
      "name": "Austin & Washington"
    }
  },
  {
    "lat": 41.77926269699998,
    "lon": -87.68871224999998,
    "tags": {
      "name": "63rd Street & Rockwell"
    }
  },
  {
    "lat": 41.91106838000002,
    "lon": -87.64383088099999,
    "tags": {
      "name": "North Ave & Larrabee"
    }
  },
  {
    "lat": 41.76915740800001,
    "lon": -87.62971303799998,
    "tags": {
      "name": "69th Street & Wentworth"
    }
  },
  {
    "lat": 41.93903155800001,
    "lon": -87.73693032900002,
    "tags": {
      "name": "Belmont & Kostner"
    }
  },
  {
    "lat": 41.896113566,
    "lon": -87.66955485900002,
    "tags": {
      "name": "Chicago & Paulina"
    }
  },
  {
    "lat": 41.92522820400001,
    "lon": -87.668536813,
    "tags": {
      "name": "Fullerton & Ashland"
    }
  },
  {
    "lat": 42.019305385999985,
    "lon": -87.66630149600002,
    "tags": {
      "name": "Howard & Sheridan"
    }
  },
  {
    "lat": 41.968374204999975,
    "lon": -87.72300477599998,
    "tags": {
      "name": "Lawrence & Hamlin"
    }
  },
  {
    "lat": 41.939578955,
    "lon": -87.68301672000001,
    "tags": {
      "name": "Belmont & Leavitt"
    }
  },
  {
    "lat": 41.758261319999974,
    "lon": -87.62670462699998,
    "tags": {
      "name": "75th Street & Lafayette"
    }
  },
  {
    "lat": 41.80218000000002,
    "lon": -87.61547999999999,
    "tags": {
      "name": "51st Street & King Drive"
    }
  },
  {
    "lat": 41.85892552299998,
    "lon": -87.724810521,
    "tags": {
      "name": "16th Street & Pulaski"
    }
  },
  {
    "lat": 41.80229320500001,
    "lon": -87.60671324499998,
    "tags": {
      "name": "51st Street & Cottage Grove"
    }
  },
  {
    "lat": 41.96101610400001,
    "lon": -87.727704883,
    "tags": {
      "name": "Montrose & Pulaski"
    }
  },
  {
    "lat": 41.98359400099997,
    "lon": -87.65511299999997,
    "tags": {
      "name": "Sheridan & Bryn Mawr"
    }
  },
  {
    "lat": 41.93820063099997,
    "lon": -87.78584977899999,
    "tags": {
      "name": "Narragansett & Belmont"
    }
  },
  {
    "lat": 41.71043800000001,
    "lon": -87.64282200000002,
    "tags": {
      "name": "Halsted & 101st Street"
    }
  },
  {
    "lat": 41.760792299,
    "lon": -87.55730873499999,
    "tags": {
      "name": "S. Shore Drive & 75th Street"
    }
  },
  {
    "lat": 41.75860246799999,
    "lon": -87.58561017599999,
    "tags": {
      "name": "Stony Island & 75th Street"
    }
  },
  {
    "lat": 41.93596000000002,
    "lon": -87.66845,
    "tags": {
      "name": "Ashland & Wellington"
    }
  },
  {
    "lat": 41.738364382999976,
    "lon": -87.604741606,
    "tags": {
      "name": "Cottage Grove & 86th Street"
    }
  },
  {
    "lat": 41.88744076099999,
    "lon": -87.66688295199998,
    "tags": {
      "name": "Ashland & Carroll"
    }
  },
  {
    "lat": 41.866528776999985,
    "lon": -87.67614997700002,
    "tags": {
      "name": "Damen & Roosevelt"
    }
  },
  {
    "lat": 41.92556189999999,
    "lon": -87.635869824,
    "tags": {
      "name": "Stockton & Fullerton"
    }
  },
  {
    "lat": 41.931182654999986,
    "lon": -87.76615096799998,
    "tags": {
      "name": "Central & Diversey"
    }
  },
  {
    "lat": 41.853808259000004,
    "lon": -87.69540920999998,
    "tags": {
      "name": "California Pink Line Station"
    }
  },
  {
    "lat": 41.839101692999975,
    "lon": -87.66542703200003,
    "tags": {
      "name": "Ashland Orange Line Station"
    }
  },
  {
    "lat": 41.968296364000025,
    "lon": -87.71326526299998,
    "tags": {
      "name": "Kimball & Lawrence (Brown Line)"
    }
  },
  {
    "lat": 41.99792070699999,
    "lon": -87.67039085900001,
    "tags": {
      "name": "Clark & Devon"
    }
  },
  {
    "lat": 41.82703305899997,
    "lon": -87.665353789,
    "tags": {
      "name": "Ashland & 37th Street"
    }
  },
  {
    "lat": 41.78535499999998,
    "lon": -87.62535300100001,
    "tags": {
      "name": "State & 60th Street"
    }
  },
  {
    "lat": 41.89892402200002,
    "lon": -87.72628806,
    "tags": {
      "name": "Pulaski & Augusta"
    }
  },
  {
    "lat": 42.008535430999984,
    "lon": -87.69986395699999,
    "tags": {
      "name": "California & Lunt"
    }
  },
  {
    "lat": 41.985339001,
    "lon": -87.65531899899997,
    "tags": {
      "name": "Sheridan & Hollywood"
    }
  },
  {
    "lat": 41.879503107999994,
    "lon": -87.63242920200003,
    "tags": {
      "name": "LaSalle & Adams"
    }
  },
  {
    "lat": 41.889627046999976,
    "lon": -87.71135797900001,
    "tags": {
      "name": "Homan & Franklin"
    }
  },
  {
    "lat": 41.989605142000016,
    "lon": -87.748473934,
    "tags": {
      "name": "Cicero & Peterson"
    }
  },
  {
    "lat": 41.95058800100003,
    "lon": -87.67872300099998,
    "tags": {
      "name": "Damen & Grace"
    }
  },
  {
    "lat": 41.77543949400001,
    "lon": -87.68362995400003,
    "tags": {
      "name": "Western & 65th Street"
    }
  },
  {
    "lat": 41.964502813000024,
    "lon": -87.728014879,
    "tags": {
      "name": "Pulaski & Wilson"
    }
  },
  {
    "lat": 41.82313483399997,
    "lon": -87.646003613,
    "tags": {
      "name": "Halsted & Pershing"
    }
  },
  {
    "lat": 41.80009051899998,
    "lon": -87.73322253399999,
    "tags": {
      "name": "Archer & Kostner"
    }
  },
  {
    "lat": 41.815785000000005,
    "lon": -87.68478200099997,
    "tags": {
      "name": "Western & 43rd Street"
    }
  },
  {
    "lat": 41.78687065999998,
    "lon": -87.659402554,
    "tags": {
      "name": "59th Street & Loomis"
    }
  },
  {
    "lat": 41.773571000000004,
    "lon": -87.69313899899998,
    "tags": {
      "name": "California & 66th Street"
    }
  },
  {
    "lat": 42.04260127800001,
    "lon": -87.69897769200003,
    "tags": {
      "name": "Dodge & Greenwood"
    }
  },
  {
    "lat": 41.71525595600002,
    "lon": -87.56455162700001,
    "tags": {
      "name": "Yates & 99th Street"
    }
  },
  {
    "lat": 41.760903000999974,
    "lon": -87.57611800000001,
    "tags": {
      "name": "Jeffery & 74th Street"
    }
  },
  {
    "lat": 41.96207500000003,
    "lon": -87.77700499899998,
    "tags": {
      "name": "Austin & Sunnyside"
    }
  },
  {
    "lat": 41.70943445,
    "lon": -87.72083417699997,
    "tags": {
      "name": "Pulaski & 101st Street"
    }
  },
  {
    "lat": 41.78643099999999,
    "lon": -87.801178,
    "tags": {
      "name": "Harlem & 58th Street"
    }
  },
  {
    "lat": 41.936917634,
    "lon": -87.74666759799999,
    "tags": {
      "name": "Cicero & Barry"
    }
  },
  {
    "lat": 41.72147897999997,
    "lon": -87.681953367,
    "tags": {
      "name": "Western & 95th Street"
    }
  },
  {
    "lat": 41.91675099999998,
    "lon": -87.76562799999999,
    "tags": {
      "name": "Central & Armitage"
    }
  },
  {
    "lat": 41.759024995000004,
    "lon": -87.555540968,
    "tags": {
      "name": "S. Shore Drive & 76th Street"
    }
  },
  {
    "lat": 41.829199990000006,
    "lon": -87.61700790499998,
    "tags": {
      "name": "3600 S King Drive"
    }
  },
  {
    "lat": 41.77539500099999,
    "lon": -87.69318199999998,
    "tags": {
      "name": "California & 65th Street"
    }
  },
  {
    "lat": 41.935287328000015,
    "lon": -87.71229702699998,
    "tags": {
      "name": "Kimball & Wisner/Wellington"
    }
  },
  {
    "lat": 41.70619256399999,
    "lon": -87.70859295700001,
    "tags": {
      "name": "103rd Street & St. Louis"
    }
  },
  {
    "lat": 41.91053507700002,
    "lon": -87.679760257,
    "tags": {
      "name": "North Ave & Hoyne"
    }
  },
  {
    "lat": 41.90215349900001,
    "lon": -87.77280527900001,
    "tags": {
      "name": "Division & Mayfield"
    }
  },
  {
    "lat": 42.00870540400001,
    "lon": -87.68801666000002,
    "tags": {
      "name": "Lunt & Oakley"
    }
  },
  {
    "lat": 41.94528657799998,
    "lon": -87.819467347,
    "tags": {
      "name": "Addison & Overhill"
    }
  },
  {
    "lat": 41.823391019999974,
    "lon": -87.64564408199999,
    "tags": {
      "name": "Pershing & Halsted"
    }
  },
  {
    "lat": 41.82370563799998,
    "lon": -87.62135675600001,
    "tags": {
      "name": "Pershing & Indiana"
    }
  },
  {
    "lat": 41.952847581000015,
    "lon": -87.786249054,
    "tags": {
      "name": "Irving Park & Narragansett"
    }
  },
  {
    "lat": 41.77834268999999,
    "lon": -87.74191468800001,
    "tags": {
      "name": "63rd Street & Cicero"
    }
  },
  {
    "lat": 41.91825575399997,
    "lon": -87.63899622500003,
    "tags": {
      "name": "Armitage & Lincoln/Sedgwick"
    }
  },
  {
    "lat": 42.016268000000025,
    "lon": -87.66501799899999,
    "tags": {
      "name": "Sheridan & Jarvis"
    }
  },
  {
    "lat": 42.00572,
    "lon": -87.66084799999999,
    "tags": {
      "name": "Sheridan & Pratt"
    }
  },
  {
    "lat": 41.83108599299999,
    "lon": -87.61047889399998,
    "tags": {
      "name": "Cottage Grove & 35th Street"
    }
  },
  {
    "lat": 41.818432925000025,
    "lon": -87.64569798100001,
    "tags": {
      "name": "Halsted & Root"
    }
  },
  {
    "lat": 41.784049708,
    "lon": -87.61564045699998,
    "tags": {
      "name": "King Drive & 61st Street"
    }
  },
  {
    "lat": 41.877658010000005,
    "lon": -87.696109525,
    "tags": {
      "name": "California & Jackson"
    }
  },
  {
    "lat": 41.94037174599998,
    "lon": -87.639479042,
    "tags": {
      "name": "Inner Lake Shore Drive & Belmont"
    }
  },
  {
    "lat": 41.957716000999994,
    "lon": -87.67878300000001,
    "tags": {
      "name": "Damen & Berteau"
    }
  },
  {
    "lat": 41.88668899999999,
    "lon": -87.62783100000001,
    "tags": {
      "name": "State & E. Wacker"
    }
  },
  {
    "lat": 41.90797915799999,
    "lon": -87.73114760499999,
    "tags": {
      "name": "Grand & Keeler"
    }
  },
  {
    "lat": 41.77108769300003,
    "lon": -87.62525994100002,
    "tags": {
      "name": "State & 68th Street"
    }
  },
  {
    "lat": 41.91049700100001,
    "lon": -87.62631699899998,
    "tags": {
      "name": "Lake Shore & North Ave"
    }
  },
  {
    "lat": 41.97479499999997,
    "lon": -87.65162800000002,
    "tags": {
      "name": "Marine Drive & Winona/Carmen"
    }
  },
  {
    "lat": 41.78527500000001,
    "lon": -87.77184699999998,
    "tags": {
      "name": "Austin & 59th Street"
    }
  },
  {
    "lat": 41.74440900000002,
    "lon": -87.702315,
    "tags": {
      "name": "Kedzie & 82nd Street"
    }
  },
  {
    "lat": 41.988697,
    "lon": -87.689745001,
    "tags": {
      "name": "Western & Thorndale"
    }
  },
  {
    "lat": 41.78592673000003,
    "lon": -87.72062211899998,
    "tags": {
      "name": "59th Street & Springfield"
    }
  },
  {
    "lat": 41.78367527299997,
    "lon": -87.623949541,
    "tags": {
      "name": "61st Street & Wabash"
    }
  },
  {
    "lat": 41.68509776100001,
    "lon": -87.63750516300001,
    "tags": {
      "name": "115th Street & Wallace"
    }
  },
  {
    "lat": 41.787050223999984,
    "lon": -87.64021928199998,
    "tags": {
      "name": "609 W 59th Street"
    }
  },
  {
    "lat": 41.722190074000025,
    "lon": -87.59076704799998,
    "tags": {
      "name": "95th Street & Dorchester"
    }
  },
  {
    "lat": 41.887368901,
    "lon": -87.71110360900002,
    "tags": {
      "name": "Homan & Carroll"
    }
  },
  {
    "lat": 41.72636101400002,
    "lon": -87.56070467500001,
    "tags": {
      "name": "93rd Street & Colfax"
    }
  },
  {
    "lat": 42.01919195099998,
    "lon": -87.709256939,
    "tags": {
      "name": "Howard & Kedzie"
    }
  },
  {
    "lat": 41.79407388300001,
    "lon": -87.664883799,
    "tags": {
      "name": "Garfield & Ashland"
    }
  },
  {
    "lat": 41.88039613900003,
    "lon": -87.76176520799999,
    "tags": {
      "name": "Madison & Lotus"
    }
  },
  {
    "lat": 41.94005027700001,
    "lon": -87.649128916,
    "tags": {
      "name": "Belmont & Halsted"
    }
  },
  {
    "lat": 41.768696331,
    "lon": -87.65890365000001,
    "tags": {
      "name": "69th Street & Loomis"
    }
  },
  {
    "lat": 41.780578262000006,
    "lon": -87.59651580600001,
    "tags": {
      "name": "63rd Street & Woodlawn"
    }
  },
  {
    "lat": 41.82389595199999,
    "lon": -87.61746582,
    "tags": {
      "name": "Pershing & King Drive"
    }
  },
  {
    "lat": 41.764633,
    "lon": -87.68791599999997,
    "tags": {
      "name": "71st Street & Rockwell"
    }
  },
  {
    "lat": 41.77352393899997,
    "lon": -87.57680134600002,
    "tags": {
      "name": "67th Street & Jeffery"
    }
  },
  {
    "lat": 41.925514607000025,
    "lon": -87.64942756800002,
    "tags": {
      "name": "Fullerton & Halsted"
    }
  },
  {
    "lat": 41.763775001,
    "lon": -87.62977799999999,
    "tags": {
      "name": "Wentworth & 72nd Street"
    }
  },
  {
    "lat": 41.745442001000015,
    "lon": -87.63566500000002,
    "tags": {
      "name": "Vincennes & 82nd Street"
    }
  },
  {
    "lat": 41.747604000000024,
    "lon": -87.884297,
    "tags": {
      "name": "Ups Facility Stop 1"
    }
  },
  {
    "lat": 41.938381402999994,
    "lon": -87.78629643,
    "tags": {
      "name": "Belmont & Narragansett"
    }
  },
  {
    "lat": 41.756155001000025,
    "lon": -87.63219700000002,
    "tags": {
      "name": "Vincennes & 76th Street"
    }
  },
  {
    "lat": 41.746984999999995,
    "lon": -87.63509499999998,
    "tags": {
      "name": "Vincennes & 81st Street"
    }
  },
  {
    "lat": 41.83674140300002,
    "lon": -87.72932819200003,
    "tags": {
      "name": "31st Street & Keeler"
    }
  },
  {
    "lat": 41.76845216100003,
    "lon": -87.683494715,
    "tags": {
      "name": "Western & 69th Street"
    }
  },
  {
    "lat": 41.94581596199998,
    "lon": -87.76652536099999,
    "tags": {
      "name": "Addison & Central"
    }
  },
  {
    "lat": 41.794115455,
    "lon": -87.63104441899998,
    "tags": {
      "name": "Garfield Red Line Station"
    }
  },
  {
    "lat": 41.883314000999974,
    "lon": -87.64131300000003,
    "tags": {
      "name": "Clinton & Washington"
    }
  },
  {
    "lat": 41.85921124999999,
    "lon": -87.70113114899999,
    "tags": {
      "name": "Ogden & Sacramento"
    }
  },
  {
    "lat": 41.80507134099997,
    "lon": -87.66474943899999,
    "tags": {
      "name": "Ashland & 49th Street"
    }
  },
  {
    "lat": 41.838102092999975,
    "lon": -87.646124058,
    "tags": {
      "name": "31st Street & Halsted"
    }
  },
  {
    "lat": 41.84531500000003,
    "lon": -87.63174500100001,
    "tags": {
      "name": "Wentworth & 26th Street"
    }
  },
  {
    "lat": 41.953878212999996,
    "lon": -87.71896504900002,
    "tags": {
      "name": "Irving Park & Elston/Monticello"
    }
  },
  {
    "lat": 41.960703911999985,
    "lon": -87.75227526100002,
    "tags": {
      "name": "Montrose & Lavergne"
    }
  },
  {
    "lat": 41.76884376300001,
    "lon": -87.62552269000003,
    "tags": {
      "name": "69th Red Line Station"
    }
  },
  {
    "lat": 41.95445297600003,
    "lon": -87.66207279899999,
    "tags": {
      "name": "Irving Park & Clark"
    }
  },
  {
    "lat": 41.80795053700001,
    "lon": -87.723884242,
    "tags": {
      "name": "47th Street & Pulaski"
    }
  },
  {
    "lat": 41.736411197999985,
    "lon": -87.624765734,
    "tags": {
      "name": "87th Street Red Line Station"
    }
  },
  {
    "lat": 42.005626430999996,
    "lon": -87.66118942100002,
    "tags": {
      "name": "Pratt & Sheridan"
    }
  },
  {
    "lat": 42.00888762400001,
    "lon": -87.68166487000002,
    "tags": {
      "name": "Lunt & Ridge"
    }
  },
  {
    "lat": 41.84186738699998,
    "lon": -87.61764714100002,
    "tags": {
      "name": "King Drive & 29th Street"
    }
  },
  {
    "lat": 41.82843607199999,
    "lon": -87.70501149299997,
    "tags": {
      "name": "36th Street & Kedzie Terminal"
    }
  },
  {
    "lat": 41.87455959599998,
    "lon": -87.62437371800002,
    "tags": {
      "name": "Michigan & Harrison"
    }
  },
  {
    "lat": 41.960425999999984,
    "lon": -87.77708999999999,
    "tags": {
      "name": "Austin & Montrose"
    }
  },
  {
    "lat": 41.98444084900001,
    "lon": -87.78777026400002,
    "tags": {
      "name": "Nagle & Avondale/Somerset"
    }
  },
  {
    "lat": 41.812829119000014,
    "lon": -87.62629628299999,
    "tags": {
      "name": "State & 45th Street"
    }
  },
  {
    "lat": 41.688347299999975,
    "lon": -87.540225453,
    "tags": {
      "name": "Avenue O & 114th Street"
    }
  },
  {
    "lat": 41.808420818,
    "lon": -87.68921337900002,
    "tags": {
      "name": "47th Street & Rockwell"
    }
  },
  {
    "lat": 41.938771616999986,
    "lon": -87.756496271,
    "tags": {
      "name": "Belmont & Laramie"
    }
  },
  {
    "lat": 41.85732921699997,
    "lon": -87.68568273699998,
    "tags": {
      "name": "18th Street & Western"
    }
  },
  {
    "lat": 41.954497335999974,
    "lon": -87.66243285600001,
    "tags": {
      "name": "Clark & Irving Park"
    }
  },
  {
    "lat": 41.877170045000014,
    "lon": -87.72564233399999,
    "tags": {
      "name": "Pulaski & Jackson"
    }
  },
  {
    "lat": 41.765332,
    "lon": -87.64447200000001,
    "tags": {
      "name": "Halsted & 71st Street"
    }
  },
  {
    "lat": 41.898664000999986,
    "lon": -87.75575099999998,
    "tags": {
      "name": "Laramie & Augusta"
    }
  },
  {
    "lat": 41.777261227,
    "lon": -87.80566527299999,
    "tags": {
      "name": "63rd Street & 74th Avenue"
    }
  },
  {
    "lat": 41.691590593,
    "lon": -87.703257221,
    "tags": {
      "name": "111th Street & Spaulding"
    }
  },
  {
    "lat": 41.76424748400001,
    "lon": -87.71490598899999,
    "tags": {
      "name": "71st Street & Lawndale"
    }
  },
  {
    "lat": 41.758512293000024,
    "lon": -87.61255179599999,
    "tags": {
      "name": "75th Street & Eberhart"
    }
  },
  {
    "lat": 41.93897900799999,
    "lon": -87.73939003200002,
    "tags": {
      "name": "Belmont & Kilbourn"
    }
  },
  {
    "lat": 41.816229588,
    "lon": -87.63125027799998,
    "tags": {
      "name": "Wentworth & 43rd Street"
    }
  },
  {
    "lat": 41.87499673399998,
    "lon": -87.62769601100001,
    "tags": {
      "name": "State & Harrison/Ida B Wells Drive"
    }
  },
  {
    "lat": 41.82740376300001,
    "lon": -87.617178088,
    "tags": {
      "name": "King Drive & 37th Street"
    }
  },
  {
    "lat": 41.97539579300002,
    "lon": -87.73570325100002,
    "tags": {
      "name": "Foster & Kildare"
    }
  },
  {
    "lat": 41.99743553000002,
    "lon": -87.702207956,
    "tags": {
      "name": "Devon & Francisco"
    }
  },
  {
    "lat": 41.83075549,
    "lon": -87.63887403400003,
    "tags": {
      "name": "35th Street & Normal"
    }
  },
  {
    "lat": 41.76426565999998,
    "lon": -87.70515728800001,
    "tags": {
      "name": "71st Street & Spaulding"
    }
  },
  {
    "lat": 41.823295986999995,
    "lon": -87.65380453,
    "tags": {
      "name": "1132 W Pershing"
    }
  },
  {
    "lat": 41.873099000000025,
    "lon": -87.74266100099999,
    "tags": {
      "name": "Harrison & Kilpatrick"
    }
  },
  {
    "lat": 41.77845783999999,
    "lon": -87.73467451300002,
    "tags": {
      "name": "63rd Street & Kilbourn"
    }
  },